subzone_code,subzone_name,planning_area,latitude,longitude,Total_Total,volunteers_count,hdb_ratio,elderly_ratio,low_income_ratio,AED_count,risk_score,risk_score_normalized,normalized_risk_score,population_density_proxy,normalized_density,area_weight,current_aeds,optimized_aeds,current_coverage_effect,optimized_coverage_effect,coverage_improvement
BMSZ12,DEPOT ROAD,BUKIT MERAH,1.282222077052097,103.80855947837308,6540.0,0,1.0,0.199,0.13,5,50.004093,0.007610722,0.007610722,6540.0,0.04993128721942281,0.04993128721942281,5,4,0.0019000657306459002,0.0015200525845167202,-0.00038001314612917995
BMSZ02,BUKIT MERAH,BUKIT MERAH,1.282014214112846,103.81858972312692,1110.0,0,1.0,0.199,0.13,14,139.99149,0.021307921,0.021307921,1110.0,0.00847457627118644,0.00847457627118644,14,2,0.0025280584237288134,0.0003611512033898305,-0.0021669072203389828
OTSZ03,CHINATOWN,OUTRAM,1.2799694820424423,103.84368741875312,10490.0,0,0.0,0.199,0.13,6,59.995857,0.009131593,0.009131593,10490.0,0.0800885631394106,0.0800885631394106,6,7,0.004388016975263399,0.0051193531378072995,0.0007313361625439002
DTSZ04,PHILLIP,DOWNTOWN CORE,1.285276843312479,103.84865417632476,10.0,0,0.0,0.199,0.13,0,0.0036557845,3.4216267e-08,3.4216267e-08,10.0,7.634753397465261e-05,7.634753397465261e-05,0,2,0.0,5.2246552145365705e-12,5.2246552145365705e-12
DTSZ05,RAFFLES PLACE,DOWNTOWN CORE,1.283720000241768,103.85100738198908,40.0,0,0.0,0.199,0.13,1,9.998948,0.0015214419,0.0015214419,40.0,0.00030539013589861045,0.00030539013589861045,1,2,4.646333486028401e-07,9.292666972056802e-07,4.646333486028401e-07
OTSZ04,CHINA SQUARE,OUTRAM,1.2843864299599683,103.8468833241059,1430.0,0,0.0,0.199,0.13,0,0.117724374,1.7396873e-05,1.7396873e-05,1430.0,0.010917697358375325,0.010917697358375325,0,2,0.0,3.79867588792182e-07,3.79867588792182e-07
BMSZ10,TIONG BAHRU,BUKIT MERAH,1.2838795305472366,103.83139275944406,12890.0,0,1.0,0.199,0.13,4,40.00593,0.0060888776,0.0060888776,12890.0,0.09841197129332722,0.09841197129332722,4,6,0.0023968737903191325,0.0035953106854786985,0.001198436895159566
DTSZ12,BAYFRONT SUBZONE,DOWNTOWN CORE,1.2833347252444942,103.85853376179683,0.0,0,0.8,0.199,0.13,8,79.9986,0.012176258,0.012176258,0.0,0.0,0.0,8,2,0.0,0.0,0.0
BMSZ04,TIONG BAHRU STATION,BUKIT MERAH,1.284029905454372,103.8268263612172,15120.0,0,1.0,0.199,0.13,2,20.009327,0.003045146,0.003045146,15120.0,0.11543747136967476,0.11543747136967476,2,4,0.0007030479083829592,0.0014060958167659184,0.0007030479083829592
DTSZ06,CLIFFORD PIER,DOWNTOWN CORE,1.285561905806231,103.85469937473908,0.0,0,0.8,0.199,0.13,1,10.006733,0.0015226267,0.0015226267,0.0,0.0,0.0,1,2,0.0,0.0,0.0
MSSZ01,MARINA SOUTH,MARINA SOUTH,1.2805312986428294,103.8656285346646,0.0,0,0.8,0.199,0.13,21,209.99165,0.031962816,0.031962816,0.0,0.0,0.0,21,2,0.0,0.0,0.0
DTSZ13,NICOLL,DOWNTOWN CORE,1.299321500777898,103.8641870281905,290.0,0,0.0,0.199,0.13,6,59.99589,0.009131598,0.009131598,290.0,0.002214078485264926,0.002214078485264926,6,1,0.00012130844800732937,2.0218074667888224e-05,-0.00010109037333944115
MESZ01,MARINA EAST,MARINA EAST,1.2885173871968896,103.87235158783412,0.0,0,0.8,0.199,0.13,34,339.9956,0.051751032,0.051751032,0.0,0.0,0.0,34,2,0.0,0.0,0.0
RVSZ05,INSTITUTION HILL,RIVER VALLEY,1.2940158539005695,103.83750039699922,3150.0,0,0.0,0.199,0.13,2,20.000746,0.0030438397,0.0030438397,3150.0,0.024049473202015576,0.024049473202015576,2,1,0.00014640548259276225,7.320274129638113e-05,-7.320274129638113e-05
SRSZ01,ROBERTSON QUAY,SINGAPORE RIVER,1.291285963595759,103.83706412860371,3010.0,0,0.0,0.199,0.13,8,79.99344,0.012175472,0.012175472,3010.0,0.02298060772637044,0.02298060772637044,8,3,0.0022383979673232554,0.0008393992377462208,-0.0013989987295770345
WISZ01,JURONG ISLAND AND BUKOM,WESTERN ISLANDS,1.2625323601827072,103.6986386515527,10.0,0,0.0,0.199,0.13,334,3339.9517,0.5083816,0.5083816,10.0,7.634753397465261e-05,7.634753397465261e-05,334,1,0.012963769613681477,3.881368147808826e-05,-0.01292495593220339
MUSZ02,FORT CANNING,MUSEUM,1.2940463913430484,103.8460529566889,190.0,0,0.0,0.199,0.13,7,69.99493,0.010653575,0.010653575,190.0,0.0014506031455183998,0.0014506031455183998,7,2,0.00010817876584211331,3.090821881203237e-05,-7.727054703008094e-05
OTSZ01,PEARL'S HILL,OUTRAM,1.285601663651388,103.83942254516158,6120.0,0,0.0,0.199,0.13,3,29.995306,0.004565136,0.004565136,6120.0,0.0467246907924874,0.0467246907924874,3,2,0.0006399137040769583,0.0004266091360513055,-0.00021330456802565276
SRSZ03,BOAT QUAY,SINGAPORE RIVER,1.2873546011294492,103.84818906113507,130.0,0,0.0,0.199,0.13,0,0.007817756,6.677201e-07,6.677201e-07,130.0,0.000992517941670484,0.000992517941670484,0,2,0.0,1.3254483585280196e-09,1.3254483585280196e-09
BMSZ08,HENDERSON HILL,BUKIT MERAH,1.286985554822534,103.8223827838929,13320.0,0,1.0,0.199,0.13,9,90.005585,0.013699445,0.013699445,13320.0,0.1016949152542373,0.1016949152542373,9,13,0.012538475084745763,0.018111130677966103,0.00557265559322034
BMSZ03,REDHILL,BUKIT MERAH,1.2876339561942527,103.817163352372,10620.0,0,1.0,0.199,0.13,3,30.006866,0.0045668953,0.0045668953,10620.0,0.08108108108108109,0.08108108108108109,3,4,0.0011108664243243244,0.0014811552324324325,0.0003702888081081081
BMSZ07,ALEXANDRA HILL,BUKIT MERAH,1.287505822775538,103.8095865142582,13490.0,0,1.0,0.199,0.13,10,99.99685,0.01522024,0.01522024,13490.0,0.10299282333180639,0.10299282333180639,10,14,0.015675754893876927,0.021946056851427698,0.00627030195755077
BMSZ09,BUKIT HO SWEE,BUKIT MERAH,1.289671676488198,103.83044381036498,14390.0,0,1.0,0.199,0.13,5,50.00715,0.007611187,0.007611187,14390.0,0.10986410138952511,0.10986410138952511,5,8,0.004180981101313177,0.006689569762101084,0.002508588660787907
SRSZ02,CLARKE QUAY,SINGAPORE RIVER,1.2895993363513407,103.84457916569038,130.0,0,0.0,0.199,0.13,4,39.99392,0.0060870494,0.0060870494,130.0,0.000992517941670484,0.000992517941670484,4,2,2.416602296533822e-05,1.208301148266911e-05,-1.208301148266911e-05
QTSZ13,PASIR PANJANG 1,QUEENSTOWN,1.2866226877759497,103.78010107387112,4510.0,0,1.0,0.199,0.13,12,119.99852,0.018264743,0.018264743,4510.0,0.03443273782256833,0.03443273782256833,12,6,0.007546861285387082,0.003773430642693541,-0.003773430642693541
QTSZ07,QUEENSWAY,QUEENSTOWN,1.2885191957240625,103.79891178710976,270.0,0,1.0,0.199,0.13,6,60.00129,0.00913242,0.00913242,270.0,0.002061383417315621,0.002061383417315621,6,2,0.00011295251488776912,3.765083829592305e-05,-7.530167659184608e-05
MPSZ05,MARINA EAST (MP),MARINE PARADE,1.2922159140462235,103.8846765343044,0.0,0,1.0,0.199,0.13,17,170.01917,0.025878506,0.025878506,0.0,0.0,0.0,17,2,0.0,0.0,0.0
WISZ03,SUDONG,WESTERN ISLANDS,1.1933384837249787,103.72488436744536,0.0,0,0.8,0.199,0.13,0,0.012155999,1.3280546e-06,1.3280546e-06,0.0,0.0,0.0,0,2,0.0,0.0,0.0
WISZ02,SEMAKAU,WESTERN ISLANDS,1.2013592429719302,103.77227673394934,0.0,0,0.8,0.199,0.13,0,0.012155999,1.3280546e-06,1.3280546e-06,0.0,0.0,0.0,0,2,0.0,0.0,0.0
SISZ02,SOUTHERN GROUP,SOUTHERN ISLANDS,1.228009451752713,103.84962773958512,0.0,0,0.8,0.199,0.13,19,189.9831,0.028917264,0.028917264,0.0,0.0,0.0,19,2,0.0,0.0,0.0
SISZ01,SENTOSA,SOUTHERN ISLANDS,1.2497210381292878,103.82966916383964,1940.0,0,0.0,0.199,0.13,54,540.0409,0.08220041,0.08220041,1940.0,0.014811421591082608,0.014811421591082608,54,11,0.06574526608337151,0.013392554202168271,-0.052352711881203245
BMSZ17,CITY TERMINALS,BUKIT MERAH,1.2653004199465947,103.8368005527159,20.0,0,1.0,0.199,0.13,59,589.9793,0.08980166,0.08980166,20.0,0.00015269506794930523,0.00015269506794930523,59,2,0.000809023963963964,2.7424541151320813e-05,-0.0007815994228126432
DTSZ10,ANSON,DOWNTOWN CORE,1.2737179127909748,103.84360995961352,80.0,0,0.0,0.199,0.13,0,0.007633258,6.396371e-07,6.396371e-07,80.0,0.0006107802717972209,0.0006107802717972209,0,2,0.0,7.813554435791723e-10,7.813554435791723e-10
SVSZ01,STRAITS VIEW,STRAITS VIEW,1.2712516610912177,103.85877319627342,0.0,0,0.8,0.199,0.13,28,279.94467,0.042610537,0.042610537,0.0,0.0,0.0,28,2,0.0,0.0,0.0
BMSZ01,MARITIME SQUARE,BUKIT MERAH,1.2686893990414403,103.81362283115516,3620.0,0,1.0,0.199,0.13,14,139.99149,0.021307921,0.021307921,3620.0,0.027637807298824247,0.027637807298824247,14,6,0.008244659003511986,0.0035334252872194225,-0.004711233716292563
BMSZ15,TELOK BLANGAH RISE,BUKIT MERAH,1.274034808334735,103.82460278260108,12150.0,0,1.0,0.199,0.13,3,30.006681,0.0045668674,0.0045668674,12150.0,0.09276225377920293,0.09276225377920293,3,4,0.0012708987382043057,0.0016945316509390745,0.0004236329127347688
DTSZ09,TANJONG PAGAR,DOWNTOWN CORE,1.275884519191568,103.84587860235952,670.0,0,0.0,0.199,0.13,1,9.998948,0.0015214419,0.0015214419,670.0,0.0051152847763017255,0.0051152847763017255,1,2,7.782608589097572e-06,1.5565217178195144e-05,7.782608589097572e-06
BMSZ16,EVERTON PARK,BUKIT MERAH,1.274949804808943,103.836315892199,7810.0,0,1.0,0.199,0.13,6,60.001633,0.009132472,0.009132472,7810.0,0.059627424034203694,0.059627424034203694,6,5,0.0032672746825469536,0.0027227289021224616,-0.000544545780424492
BMSZ14,TELOK BLANGAH WAY,BUKIT MERAH,1.2773816093970425,103.82047414701732,9230.0,0,1.0,0.199,0.13,1,10.008786,0.0015229393,0.0015229393,9230.0,0.07046877385860437,0.07046877385860437,1,1,0.00010731966513208123,0.00010731966513208123,0.0
DTSZ07,MAXWELL,DOWNTOWN CORE,1.2794151816364674,103.84582665469983,0.0,0,0.8,0.199,0.13,0,0.012155999,1.3280546e-06,1.3280546e-06,0.0,0.0,0.0,0,2,0.0,0.0,0.0
DTSZ08,CECIL,DOWNTOWN CORE,1.278642607628731,103.84886506099345,260.0,0,0.0,0.199,0.13,12,120.003685,0.018265529,0.018265529,260.0,0.001985035883340968,0.001985035883340968,12,1,0.0004350927659184608,3.6257730493205065e-05,-0.0003988350354252557
BMSZ11,KAMPONG TIONG BAHRU,BUKIT MERAH,1.2783572712482043,103.82735076575196,9010.0,0,1.0,0.199,0.13,1,10.008602,0.0015229112,0.0015229112,9010.0,0.06878912811116202,0.06878912811116202,1,1,0.00010475973363872347,0.00010475973363872347,0.0
BMSZ13,TELOK BLANGAH DRIVE,BUKIT MERAH,1.2766547989696886,103.80887984051616,19320.0,0,1.0,0.199,0.13,15,150.01227,0.022833208,0.022833208,19320.0,0.14750343563902885,0.14750343563902885,15,30,0.050519649399908384,0.10103929879981677,0.050519649399908384
QTSZ14,PASIR PANJANG 2,QUEENSTOWN,1.277584987357489,103.79461533416308,3060.0,0,1.0,0.199,0.13,10,100.000496,0.015220795,0.015220795,3060.0,0.0233623453962437,0.0233623453962437,10,4,0.0035559346999541916,0.0014223738799816765,-0.002133560819972515
DTSZ11,CENTRAL SUBZONE,DOWNTOWN CORE,1.2756736590422952,103.85242000082276,880.0,0,0.0,0.199,0.13,8,80.003654,0.012177027,0.012177027,880.0,0.00671858298976943,0.00671858298976943,8,1,0.0006544989317453046,8.181236646816308e-05,-0.0005726865652771415
BMSZ05,SINGAPORE GENERAL HOSPITAL,BUKIT MERAH,1.2797252373429953,103.8346413891822,10.0,0,1.0,0.199,0.13,1,10.005786,0.0015224826,0.0015224826,10.0,7.634753397465261e-05,7.634753397465261e-05,1,2,1.1623779202931744e-07,2.3247558405863487e-07,1.1623779202931744e-07
DTSZ01,BUGIS,DOWNTOWN CORE,1.2991457341314865,103.85603679756154,890.0,0,0.0,0.199,0.13,2,20.000746,0.0030438397,0.0030438397,890.0,0.006794930523744083,0.006794930523744083,2,1,4.136535857382806e-05,2.068267928691403e-05,-2.068267928691403e-05
RCSZ10,VICTORIA,ROCHOR,1.2996636062042934,103.85298961592576,1760.0,0,0.0,0.199,0.13,4,39.997135,0.006087539,0.006087539,1760.0,0.01343716597953886,0.01343716597953886,4,1,0.00032719708779966407,8.179927194991602e-05,-0.00024539781584974807
RVSZ02,PATERSON,RIVER VALLEY,1.3012521817513178,103.83160520655493,240.0,0,0.0,0.199,0.13,1,10.002281,0.0015219492,0.0015219492,240.0,0.0018323408153916628,0.0018323408153916628,1,2,2.7887296381126886e-06,5.577459276225377e-06,2.7887296381126886e-06
MPSZ04,EAST COAST,MARINE PARADE,1.299691271334154,103.90867526787515,0.0,0,1.0,0.199,0.13,14,139.99379,0.021308271,0.021308271,0.0,0.0,0.0,14,2,0.0,0.0,0.0
QTSZ11,NATIONAL UNIVERSITY OF S'PORE,QUEENSTOWN,1.2959845251975957,103.77661864933738,240.0,0,1.0,0.199,0.13,14,139.99149,0.021307921,0.021307921,240.0,0.0018323408153916628,0.0018323408153916628,14,1,0.0005466072267521759,3.9043373339441134e-05,-0.0005075638534127347
RVSZ01,ONE TREE HILL,RIVER VALLEY,1.3017262738114217,103.82716856724952,2070.0,0,0.0,0.199,0.13,4,39.99732,0.0060875667,0.0060875667,2070.0,0.01580393953275309,0.01580393953275309,4,1,0.00038483014411360507,9.620753602840127e-05,-0.0002886226080852038
QTSZ03,COMMONWEALTH,QUEENSTOWN,1.3049473759447046,103.7998816749111,7000.0,0,1.0,0.199,0.13,4,40.00593,0.0060888776,0.0060888776,7000.0,0.053443273782256835,0.053443273782256835,4,3,0.0013016382104138037,0.0009762286578103526,-0.0003254095526034511
QTSZ10,DOVER,QUEENSTOWN,1.3038619589251688,103.77954944762688,11080.0,0,1.0,0.199,0.13,28,279.94952,0.042611275,0.042611275,11080.0,0.0845930676439151,0.0845930676439151,28,32,0.1009293171171171,0.11534779099099098,0.014418473873873877
TNSZ03,RIDOUT,TANGLIN,1.3034343318263215,103.81146905986962,1520.0,0,0.0,0.199,0.13,7,69.99146,0.010653047,0.010653047,1520.0,0.011604825164147198,0.011604825164147198,7,2,0.0008653872353030998,0.00024725349580088566,-0.0006181337395022141
NTSZ04,CAIRNHILL,NEWTON,1.3066460686507626,103.8376503825013,3880.0,0,0.0,0.199,0.13,0,0.007817756,6.677201e-07,6.677201e-07,3880.0,0.029622843182165216,0.029622843182165216,0,2,0.0,3.9559535623759356e-08,3.9559535623759356e-08
CLSZ08,CLEMENTI WEST,CLEMENTI,1.3025219273598778,103.76309139206336,15260.0,0,0.0,0.199,0.13,7,69.99511,0.010653603,0.010653603,15260.0,0.1165063368453199,0.1165063368453199,7,11,0.008688485818140175,0.013653334857077416,0.004964849038937241
NTSZ05,MONK'S HILL,NEWTON,1.308022354616984,103.84160296355266,1030.0,0,0.0,0.199,0.13,20,200.01073,0.030443594,0.030443594,1030.0,0.00786379599938922,0.00786379599938922,20,3,0.004788044254084594,0.000718206638112689,-0.004069837615971904
BDSZ07,SIGLAP,BEDOK,1.306590763776463,103.92708615974864,6440.0,0,1.0,0.199,0.13,6,60.00469,0.009132937,0.009132937,6440.0,0.04916781187967629,0.04916781187967629,6,4,0.0026942791699496108,0.0017961861132997406,-0.0008980930566498701
CLSZ07,CLEMENTI WOODS,CLEMENTI,1.3040812285179135,103.76831866285038,16000.0,0,0.0,0.199,0.13,6,59.99589,0.009131598,0.009131598,16000.0,0.1221560543594442,0.1221560543594442,6,10,0.006692879890059552,0.011154799816765919,0.004461919926706367
PNSZ05,PIONEER SECTOR,PIONEER,1.300449002041553,103.6614548137725,0.0,0,0.8,0.199,0.13,31,310.14288,0.04720708,0.04720708,0.0,0.0,0.0,31,2,0.0,0.0,0.0
JESZ11,PENJURU CRESCENT,JURONG EAST,1.3038542316125974,103.74033689421644,10.0,0,0.0,0.199,0.13,28,279.99918,0.042618833,0.042618833,10.0,7.634753397465261e-05,7.634753397465261e-05,28,2,9.110759841197128e-05,6.507685600855092e-06,-8.459991281111618e-05
NTSZ01,ORANGE GROVE,NEWTON,1.31005518288548,103.83033705257913,1790.0,0,0.0,0.199,0.13,3,29.998474,0.004565618,0.004565618,1790.0,0.013666208581462818,0.013666208581462818,3,1,0.00018718406367384329,6.23946878912811e-05,-0.00012478937578256217
KLSZ04,KAMPONG BUGIS,KALLANG,1.3081638861192428,103.87049587307898,920.0,0,1.0,0.199,0.13,15,150.00713,0.022832425,0.022832425,920.0,0.007023973125668041,0.007023973125668041,15,2,0.002405615093907467,0.00032074867918766226,-0.002084866414719805
QTSZ12,KENT RIDGE,QUEENSTOWN,1.2850998737440142,103.79256836461492,80.0,0,1.0,0.199,0.13,22,219.96556,0.03348097,0.03348097,80.0,0.0006107802717972209,0.0006107802717972209,22,1,0.00044988935104596115,2.0449515956634598e-05,-0.00042943983508932657
BMSZ06,ALEXANDRA NORTH,BUKIT MERAH,1.2922809419446528,103.82027415587204,2620.0,0,1.0,0.199,0.13,3,30.006866,0.0045668953,0.0045668953,2620.0,0.020003053901358987,0.020003053901358987,3,1,0.0002740555585432891,9.135185284776302e-05,-0.00018270370569552607
QTSZ04,TANGLIN HALT,QUEENSTOWN,1.300870587419264,103.79675555658802,10590.0,0,1.0,0.199,0.13,4,40.006115,0.0060889055,0.0060889055,10590.0,0.08085203847915712,0.08085203847915712,4,5,0.0019692016871278055,0.002461502108909757,0.0004923004217819516
RCSZ06,MACKENZIE,ROCHOR,1.3062401873869316,103.84841433557844,110.0,0,0.0,0.199,0.13,0,0.007817756,6.677201e-07,6.677201e-07,110.0,0.0008398228737211788,0.0008398228737211788,0,2,0.0,1.1215332264467858e-09,1.1215332264467858e-09
RCSZ03,SUNGEI ROAD,ROCHOR,1.3056991013457864,103.85669288319126,2050.0,0,0.0,0.199,0.13,3,29.99866,0.0045656464,0.0045656464,2050.0,0.015651244464803787,0.015651244464803787,3,1,0.000214374143838754,7.145804794625133e-05,-0.0001429160958925027
QTSZ08,ONE NORTH,QUEENSTOWN,1.2982462989139003,103.79091120501532,720.0,0,1.0,0.199,0.13,40,400.03888,0.060890365,0.060890365,720.0,0.005497022446174988,0.005497022446174988,40,3,0.013388628126431516,0.0010041471094823637,-0.012384481016949153
KLSZ05,TANJONG RHU,KALLANG,1.3005910457830008,103.8759107061609,11110.0,0,1.0,0.199,0.13,29,289.93237,0.044130787,0.044130787,11110.0,0.08482211024583906,0.08482211024583906,29,33,0.1085547279243396,0.12352779384493816,0.014973065920598563
MPSZ02,KATONG,MARINE PARADE,1.3072650473055665,103.90233511173967,9360.0,0,0.8392094017094017,0.199,0.13,7,70.001175,0.010654526,0.010654526,9360.0,0.07146129180027486,0.07146129180027486,7,7,0.0053297033403573064,0.0053297033403573064,0.0
ORSZ02,BOULEVARD,ORCHARD,1.3053727678215412,103.83257213001392,410.0,0,0.0,0.199,0.13,0,0.007633258,6.396371e-07,6.396371e-07,410.0,0.0031302488929607574,0.0031302488929607574,0,2,0.0,4.004446648343258e-09,4.004446648343258e-09
NTSZ06,ISTANA NEGARA,NEWTON,1.3053391290558327,103.8443422082146,60.0,0,0.0,0.199,0.13,5,49.994953,0.007609331,0.007609331,60.0,0.0004580852038479157,0.0004580852038479157,5,2,1.7428609711406322e-05,6.971443884562529e-06,-1.0457165826843793e-05
RCSZ02,LITTLE INDIA,ROCHOR,1.3067833500558044,103.8540526534276,3270.0,0,0.0,0.199,0.13,2,20.000746,0.0030438397,0.0030438397,3270.0,0.024965643609711406,0.024965643609711406,2,1,0.00015198283431058174,7.599141715529087e-05,-7.599141715529087e-05
PNSZ04,GUL BASIN,PIONEER,1.30337704787048,103.67452040521236,10.0,0,0.0,0.199,0.13,24,240.03867,0.036536343,0.036536343,10.0,7.634753397465261e-05,7.634753397465261e-05,24,2,6.694703252404946e-05,5.578919377004122e-06,-6.136811314704533e-05
DTSZ03,MARINA CENTRE,DOWNTOWN CORE,1.2918507513627877,103.85971863230544,10.0,0,0.0,0.199,0.13,9,89.99194,0.013697369,0.013697369,10.0,7.634753397465261e-05,7.634753397465261e-05,9,2,9.411843105817681e-06,2.091520690181707e-06,-7.320322415635974e-06
MUSZ03,BRAS BASAH,MUSEUM,1.2962611266237731,103.849456501195,10.0,0,0.0,0.199,0.13,1,10.000749,0.0015217159,0.0015217159,10.0,7.634753397465261e-05,7.634753397465261e-05,1,2,1.1617925637501907e-07,2.3235851275003815e-07,1.1617925637501907e-07
ORSZ03,SOMERSET,ORCHARD,1.301103239957552,103.83894851476104,140.0,0,0.0,0.199,0.13,0,0.007633258,6.396371e-07,6.396371e-07,140.0,0.0010688654756451366,0.0010688654756451366,0,2,0.0,1.3673720262635515e-09,1.3673720262635515e-09
RCSZ09,BENCOOLEN,ROCHOR,1.3020047372600176,103.85128107184504,1310.0,0,0.0,0.199,0.13,2,20.000746,0.0030438397,0.0030438397,1310.0,0.010001526950679494,0.010001526950679494,2,1,6.0886089586196364e-05,3.0443044793098182e-05,-3.0443044793098182e-05
TNSZ02,CHATSWORTH,TANGLIN,1.29703459147278,103.82340220194406,6890.0,0,0.0,0.199,0.13,9,89.995926,0.013697975,0.013697975,6890.0,0.05260345090853565,0.05260345090853565,9,7,0.006485046799129638,0.00504392528821194,-0.001441121510917698
RCSZ05,KAMPONG GLAM,ROCHOR,1.3022628967682637,103.85969079958431,120.0,0,0.0,0.199,0.13,1,10.002281,0.0015219492,0.0015219492,120.0,0.0009161704076958314,0.0009161704076958314,1,2,1.3943648190563443e-06,2.7887296381126886e-06,1.3943648190563443e-06
RCSZ08,SELEGIE,ROCHOR,1.302153153623915,103.84964812500937,210.0,0,0.0,0.199,0.13,0,0.007817756,6.677201e-07,6.677201e-07,210.0,0.001603298213467705,0.001603298213467705,0,2,0.0,2.141108886852955e-09,2.141108886852955e-09
RCSZ07,MOUNT EMILY,ROCHOR,1.3024107030238945,103.84754485629544,1630.0,0,0.0,0.199,0.13,1,10.002281,0.0015219492,0.0015219492,1630.0,0.012444648037868378,0.012444648037868378,1,2,1.8940122125515347e-05,3.788024425103069e-05,1.8940122125515347e-05
RCSZ04,ROCHOR CANAL,ROCHOR,1.3040353228099175,103.85752347122536,0.0,0,0.8,0.199,0.13,1,10.006585,0.0015226043,0.0015226043,0.0,0.0,0.0,1,2,0.0,0.0,0.0
QTSZ05,MARGARET DRIVE,QUEENSTOWN,1.2972244324492317,103.80818385969484,16090.0,0,1.0,0.199,0.13,6,60.00469,0.009132937,0.009132937,16090.0,0.12284318216521606,0.12284318216521606,6,10,0.006731514261566651,0.01121919043594442,0.004487676174377769
RVSZ04,OXLEY,RIVER VALLEY,1.2971091225645626,103.84053750680106,1490.0,0,0.0,0.199,0.13,4,39.99392,0.0060870494,0.0060870494,1490.0,0.01137578256222324,0.01137578256222324,4,1,0.00027697980167964574,6.924495041991144e-05,-0.0002077348512597343
DTSZ02,CITY HALL,DOWNTOWN CORE,1.2924357661517758,103.85316804530322,80.0,0,0.0,0.199,0.13,3,29.99866,0.0045656464,0.0045656464,80.0,0.0006107802717972209,0.0006107802717972209,3,2,8.36582024736601e-06,5.577213498244006e-06,-2.7886067491220038e-06
QTSZ06,MEI CHIN,QUEENSTOWN,1.29347230246104,103.8032270069761,15570.0,0,1.0,0.199,0.13,7,70.00477,0.0106550725,0.0106550725,15570.0,0.11887311039853413,0.11887311039853413,7,11,0.008866211267178195,0.013932617705565736,0.0050664064383875405
RVSZ03,LEONIE HILL,RIVER VALLEY,1.2979398059789415,103.83406382935466,3120.0,0,0.0,0.199,0.13,7,69.99511,0.010653603,0.010653603,3120.0,0.023820430600091615,0.023820430600091615,7,3,0.0017764138763169948,0.0007613202327072835,-0.0010150936436097114
QTSZ15,PORT,QUEENSTOWN,1.2766215676879145,103.77561185524053,120.0,0,1.0,0.199,0.13,49,490.021,0.074586764,0.074586764,120.0,0.0009161704076958314,0.0009161704076958314,49,1,0.0033483751131470453,6.833418598259276e-05,-0.0032800409271644525
MUSZ01,DHOBY GHAUT,MUSEUM,1.2988498971692009,103.84518027039492,320.0,0,0.0,0.199,0.13,3,29.99866,0.0045656464,0.0045656464,320.0,0.0024431210871888836,0.0024431210871888836,3,2,3.346328098946404e-05,2.2308853992976023e-05,-1.1154426996488015e-05
GLSZ02,MACPHERSON,GEYLANG,1.3273677721500636,103.8852042550787,28360.0,0,1.0,0.199,0.13,11,109.99431,0.016741978,0.016741978,28360.0,0.21652160635211481,0.21652160635211481,11,32,0.03987499967078943,0.11599999904229653,0.0761249993715071
TPSZ07,KIM KEAT,TOA PAYOH,1.331887616347214,103.8586363593519,7960.0,0,1.0,0.199,0.13,0,0.012449252,1.3726914e-06,1.3726914e-06,7960.0,0.060772637043823484,0.060772637043823484,0,2,0.0,1.6684415245075584e-07,1.6684415245075584e-07
BDSZ04,BEDOK NORTH,BEDOK,1.330427053357414,103.9360163651932,81840.0,0,0.7870723362658847,0.199,0.13,29,290.02173,0.04414439,0.04414439,81840.0,0.624828218048557,0.624828218048557,29,240,0.7998971556756755,6.619838529729729,5.8199413740540535
TPSZ02,TOA PAYOH CENTRAL,TOA PAYOH,1.332641043607604,103.84598592578412,28020.0,0,1.0,0.199,0.13,6,60.004505,0.009132909,0.009132909,28020.0,0.21392579019697663,0.21392579019697663,6,17,0.011722588647732478,0.033214001168575355,0.021491412520842877
JESZ06,JURONG GATEWAY,JURONG EAST,1.333107045234054,103.74268098562932,450.0,0,0.0,0.199,0.13,0,0.0034309917,0.0,0.0,450.0,0.003435639028859368,0.003435639028859368,0,2,0.0,0.0,0.0
BTSZ03,HOLLAND ROAD,BUKIT TIMAH,1.3270474790794935,103.7837744520674,10840.0,0,0.2356088560885609,0.199,0.13,45,449.82803,0.06846889,0.06846889,10840.0,0.08276072682852344,0.08276072682852344,45,50,0.25499407956939996,0.283326755077111,0.02833267550771107
GLSZ03,KAMPONG UBI,GEYLANG,1.3296108811552283,103.8965728774673,11800.0,0,1.0,0.199,0.13,18,180.00555,0.027398558,0.027398558,11800.0,0.09009009009009009,0.09009009009009009,18,22,0.04443009405405405,0.05430344828828829,0.009873354234234244
TPSZ11,SENNETT,TOA PAYOH,1.333255718295128,103.87362325663996,7190.0,0,1.0,0.199,0.13,44,440.0692,0.06698348,0.06698348,7190.0,0.05489387692777523,0.05489387692777523,44,32,0.16178724792182012,0.117663453034051,-0.044123794887769116
TPSZ09,POTONG PASIR,TOA PAYOH,1.3330560428103904,103.86563786027912,11720.0,0,1.0,0.199,0.13,9,90.00194,0.01369889,0.01369889,11720.0,0.08947930981829287,0.08947930981829287,9,11,0.011031905002290426,0.013483439447243853,0.0024515344449534265
TSSZ03,TUAS NORTH,TUAS,1.3267459179790255,103.65124506111329,30.0,0,0.0,0.199,0.13,37,360.1567,0.054819804,0.054819804,30.0,0.00022904260192395785,0.00022904260192395785,37,2,0.0004645746101694915,2.5112141090242784e-05,-0.00043946246907924875
TPSZ06,PEI CHUN,TOA PAYOH,1.3367899373115206,103.85860695513064,10360.0,0,1.0,0.199,0.13,3,30.006866,0.0045668953,0.0045668953,10360.0,0.07909604519774012,0.07909604519774012,3,4,0.0010836700711864408,0.0014448934282485877,0.0003612233570621469
TPSZ04,BOON TECK,TOA PAYOH,1.335268641865209,103.85302515915542,14660.0,0,1.0,0.199,0.13,3,30.006866,0.0045668953,0.0045668953,14660.0,0.11192548480684074,0.11192548480684074,3,5,0.0015334559115437471,0.002555759852572912,0.0010223039410291648
JWSZ06,KIAN TECK,JURONG WEST,1.3315119085096334,103.6979039975387,40.0,0,1.0,0.199,0.13,5,50.00715,0.007611187,0.007611187,40.0,0.00030539013589861045,0.00030539013589861045,5,2,1.1621907161398686e-05,4.648762864559475e-06,-6.973144296839211e-06
JWSZ07,SAFTI,JURONG WEST,1.3346032252972335,103.68317221386364,0.0,0,1.0,0.199,0.13,18,179.9854,0.02739549,0.02739549,0.0,0.0,0.0,18,2,0.0,0.0,0.0
RCSZ01,FARRER PARK,ROCHOR,1.3089809489461592,103.85215075887665,2660.0,0,0.0,0.199,0.13,2,20.000746,0.0030438397,0.0030438397,2660.0,0.020308444037257598,0.020308444037257598,2,1,0.0001236312964116659,6.181564820583295e-05,-6.181564820583295e-05
NTSZ03,NEWTON CIRCUS,NEWTON,1.3115847353928238,103.83859519402664,250.0,0,0.0,0.199,0.13,2,20.000746,0.0030438397,0.0030438397,250.0,0.0019086883493663156,0.0019086883493663156,2,2,1.1619482745457322e-05,1.1619482745457322e-05,0.0
JESZ10,JURONG PORT,JURONG EAST,1.307331791943414,103.71876051471656,0.0,0,0.8,0.199,0.13,23,229.95236,0.035001084,0.035001084,0.0,0.0,0.0,23,2,0.0,0.0,0.0
AMSZ01,ANG MO KIO TOWN CENTRE,ANG MO KIO,1.3727695785265892,103.84681301770922,4810.0,0,1.0,0.199,0.13,1,10.008786,0.0015229393,0.0015229393,4810.0,0.03672316384180791,0.03672316384180791,1,1,5.592714943502825e-05,5.592714943502825e-05,0.0
AMSZ06,KEBUN BAHRU,ANG MO KIO,1.373466881280018,103.83961008415277,22620.0,0,1.0,0.199,0.13,7,70.00477,0.0106550725,0.0106550725,22620.0,0.17269812185066422,0.17269812185066422,7,16,0.01288077706252863,0.02944177614292258,0.01656099908039395
SGSZ02,SERANGOON NORTH IND ESTATE,SERANGOON,1.3747844873550168,103.86475852851616,10.0,0,1.0,0.199,0.13,24,240.01126,0.03653217,0.03653217,10.0,7.634753397465261e-05,7.634753397465261e-05,24,2,6.693938616582685e-05,5.578282180485571e-06,-6.136110398534128e-05
THSZ02,TENGAH INDUSTRIAL ESTATE,TENGAH,1.363262623619626,103.71793155644508,0.0,0,0.8,0.199,0.13,22,220.03096,0.033490922,0.033490922,0.0,0.0,0.0,22,2,0.0,0.0,0.0
BLSZ03,SAMULUN,BOON LAY,1.3080601145691344,103.702294698127,10.0,0,0.0,0.199,0.13,22,220.00826,0.033487465,0.033487465,10.0,7.634753397465261e-05,7.634753397465261e-05,22,2,5.6247078179874784e-05,5.113370743624981e-06,-5.1133707436249805e-05
BLSZ04,SHIPYARD,BOON LAY,1.3074878792944504,103.6892756850902,0.0,0,0.8,0.199,0.13,8,79.99643,0.012175928,0.012175928,0.0,0.0,0.0,8,2,0.0,0.0,0.0
QTSZ01,GHIM MOH,QUEENSTOWN,1.3109188235584512,103.78748211883848,13850.0,0,1.0,0.199,0.13,25,250.0104,0.03805417,0.03805417,13850.0,0.10574133455489387,0.10574133455489387,25,35,0.10059746802947014,0.14083645524125818,0.040238987211788035
KLSZ06,LAVENDER,KALLANG,1.3108256597417522,103.85913971574858,9690.0,0,1.0,0.199,0.13,1,10.005453,0.001522432,0.001522432,9690.0,0.07398076042143839,0.07398076042143839,1,1,0.0001126306770499313,0.0001126306770499313,0.0
BDSZ05,FRANKEL,BEDOK,1.314778991316696,103.9204289719861,34490.0,0,1.0,0.199,0.13,46,460.22733,0.0700518,0.0700518,34490.0,0.26332264467857686,0.26332264467857686,46,161,0.8485263610627576,2.9698422637196513,2.1213159026568937
CLSZ04,CLEMENTI NORTH,CLEMENTI,1.3180493046117048,103.76694488815436,28810.0,0,0.0,0.199,0.13,5,49.998352,0.0076098484,0.0076098484,28810.0,0.2199572453809742,0.2199572453809742,5,15,0.008369206459154068,0.02510761937746221,0.01673841291830814
BTSZ07,LEEDON PARK,BUKIT TIMAH,1.316937047014799,103.7969572361115,6440.0,0,0.396583850931677,0.199,0.13,21,210.00433,0.031964745,0.031964745,6440.0,0.04916781187967629,0.04916781187967629,21,14,0.033004367947778286,0.022002911965185525,-0.011001455982592761
GLSZ05,GEYLANG EAST,GEYLANG,1.316940840983096,103.89835056696543,29920.0,0,1.0,0.199,0.13,26,260.00537,0.03957553,0.03957553,29920.0,0.22843182165216064,0.22843182165216064,26,79,0.23504807067949304,0.7141845224492288,0.47913645176973574
JESZ09,TEBAN GARDENS,JURONG EAST,1.314860941833374,103.74315558396744,18530.0,0,0.0,0.199,0.13,41,410.0314,0.062411353,0.062411353,18530.0,0.14147198045503132,0.14147198045503132,41,77,0.3620077661833105,0.6798682438076807,0.31786047762437025
JESZ08,JURONG RIVER,JURONG EAST,1.3194152167012765,103.72879509333752,10.0,0,0.0,0.199,0.13,12,119.9953,0.018264253,0.018264253,10.0,7.634753397465261e-05,7.634753397465261e-05,12,2,1.673316811726981e-05,2.788861352878302e-06,-1.3944306764391508e-05
KLSZ02,GEYLANG BAHRU,KALLANG,1.3216390136962597,103.87024965549035,11280.0,0,1.0,0.199,0.13,6,60.004505,0.009132909,0.009132909,11280.0,0.08612001832340815,0.08612001832340815,6,7,0.004719157742556115,0.005505684032982135,0.0007865262904260192
NTSZ02,GOODWOOD PARK,NEWTON,1.3135866623216337,103.83429729029189,1260.0,0,0.0,0.199,0.13,1,10.002097,0.0015219211,0.0015219211,1260.0,0.00961978928080623,0.00961978928080623,1,2,1.4640560284012826e-05,2.9281120568025652e-05,1.4640560284012826e-05
CLSZ09,PANDAN,CLEMENTI,1.3080701000705766,103.75450339533822,20.0,0,0.0,0.199,0.13,7,69.99358,0.01065337,0.01065337,20.0,0.00015269506794930523,0.00015269506794930523,7,2,1.138701939227363e-05,3.25343411207818e-06,-8.13358528019545e-06
QTSZ09,SINGAPORE POLYTECHNIC,QUEENSTOWN,1.3113487739756944,103.77718152461328,100.0,0,1.0,0.199,0.13,11,109.997955,0.016742533,0.016742533,100.0,0.0007634753397465262,0.0007634753397465262,11,2,0.0001406076217743167,2.5565022140784852e-05,-0.00011504259963353183
CLSZ06,CLEMENTI CENTRAL,CLEMENTI,1.3120646278053942,103.76308824744082,14000.0,0,0.0,0.199,0.13,4,39.99732,0.0060875667,0.0060875667,14000.0,0.10688654756451367,0.10688654756451367,4,6,0.002602715950526798,0.003904073925790197,0.001301357975263399
KLSZ07,KAMPONG JAVA,KALLANG,1.3136159595797694,103.85036159442014,10530.0,0,1.0,0.199,0.13,4,40.006115,0.0060889055,0.0060889055,10530.0,0.08039395327530921,0.08039395327530921,4,5,0.001958044737059093,0.0024475559213238663,0.0004895111842647733
KLSZ03,BOON KENG,KALLANG,1.31488371038874,103.872300214973,11790.0,0,1.0,0.199,0.13,10,100.000496,0.015220795,0.015220795,11790.0,0.09001374255611544,0.09001374255611544,10,12,0.013700807226294092,0.01644096867155291,0.002740161445258819
KLSZ08,KALLANG BAHRU,KALLANG,1.314076136899629,103.86547990899592,20.0,0,1.0,0.199,0.13,16,159.97641,0.024349874,0.024349874,20.0,0.00015269506794930523,0.00015269506794930523,16,2,5.948969063979233e-05,7.436211329974041e-06,-5.205347930981829e-05
BTSZ04,ULU PANDAN,BUKIT TIMAH,1.3163218966445094,103.7812925144643,11020.0,0,0.2317604355716878,0.199,0.13,11,110.00312,0.01674332,0.01674332,11020.0,0.08413498244006719,0.08413498244006719,11,13,0.015495688276072683,0.018313086144449535,0.0028173978683768523
BTSZ08,FARRER COURT,BUKIT TIMAH,1.3168380421335892,103.8051294388724,6180.0,0,0.4132686084142394,0.199,0.13,4,40.006115,0.0060889055,0.0060889055,6180.0,0.047182775996335316,0.047182775996335316,4,3,0.0011491658570774164,0.0008618743928080623,-0.00028729146426935404
TNSZ01,NASSIM,TANGLIN,1.3138608468962922,103.82435727962608,9520.0,0,0.0,0.199,0.13,23,229.99202,0.03500712,0.03500712,9520.0,0.07268285234386929,0.07268285234386929,23,23,0.05852159868071462,0.05852159868071462,0.0
CLSZ05,WEST COAST,CLEMENTI,1.3162747028796988,103.75508863410587,6870.0,0,0.0,0.199,0.13,4,39.99732,0.0060875667,0.0060875667,6870.0,0.05245075584058635,0.05245075584058635,4,3,0.001277189898579936,0.000957892423934952,-0.00031929747464498387
BDSZ08,BAYSHORE,BEDOK,1.3138402686397517,103.94865078114977,7450.0,0,1.0,0.199,0.13,34,339.9308,0.051741168,0.051741168,7450.0,0.0568789128111162,0.0568789128111162,34,26,0.10006136703618872,0.0765175159688502,-0.023543851067338514
PNSZ03,BENOI SECTOR,PIONEER,1.3177538702674785,103.686569536492,10.0,0,0.0,0.199,0.13,22,220.00826,0.033487465,0.033487465,10.0,7.634753397465261e-05,7.634753397465261e-05,22,2,5.6247078179874784e-05,5.113370743624981e-06,-5.1133707436249805e-05
PNSZ02,GUL CIRCLE,PIONEER,1.3153824491404005,103.66882990242571,20.0,0,0.0,0.199,0.13,28,280.03314,0.042624,0.042624,20.0,0.00015269506794930523,0.00015269506794930523,28,2,0.0001822372881355932,1.3016949152542373e-05,-0.00016922033898305084
TNSZ04,TYERSALL,TANGLIN,1.3145867440825516,103.81294533814923,3880.0,0,0.0,0.199,0.13,62,620.02295,0.09437467,0.09437467,3880.0,0.029622843182165216,0.029622843182165216,62,25,0.1733300550862727,0.06989115124446481,-0.10343890384180789
NVSZ02,MOULMEIN,NOVENA,1.3176442166714577,103.8428202353417,9300.0,0,0.0,0.199,0.13,31,310.10083,0.047200676,0.047200676,9300.0,0.07100320659642693,0.07100320659642693,31,30,0.10389337983508931,0.10054198048557031,-0.003351399349519002
BLSZ02,LIU FANG,BOON LAY,1.3182527778884787,103.70823223132425,10.0,0,0.0,0.199,0.13,13,129.99571,0.01978644,0.01978644,10.0,7.634753397465261e-05,7.634753397465261e-05,13,2,1.963839670178653e-05,3.021291800274851e-06,-1.661710490151168e-05
ORSZ01,TANGLIN,ORCHARD,1.3048186157648043,103.82579662754884,370.0,0,0.0,0.199,0.13,3,29.99866,0.0045656464,0.0045656464,370.0,0.002824858757062147,0.002824858757062147,3,2,3.86919186440678e-05,2.579461242937853e-05,-1.2897306214689268e-05
MPSZ03,MARINE PARADE,MARINE PARADE,1.3028146514825378,103.90757425060777,26880.0,0,0.2922247023809524,0.199,0.13,3,30.00336,0.0045663617,0.0045663617,26880.0,0.20522217132386625,0.20522217132386625,3,9,0.0028113559893724236,0.00843406796811727,0.005622711978744846
PNSZ01,JOO KOON,PIONEER,1.3255957737331936,103.67952177125656,30.0,0,0.0,0.199,0.13,13,129.99509,0.019786345,0.019786345,30.0,0.00022904260192395785,0.00022904260192395785,13,2,5.8914907237746224e-05,9.063831882730188e-06,-4.985107535501604e-05
GLSZ01,KALLANG WAY,GEYLANG,1.3258341867949357,103.87610383180866,30.0,0,1.0,0.199,0.13,9,90.005585,0.013699445,0.013699445,30.0,0.00022904260192395785,0.00022904260192395785,9,2,2.8239808749427395e-05,6.275513055428309e-06,-2.1964295693999087e-05
JESZ07,INTERNATIONAL BUSINESS PARK,JURONG EAST,1.3263416162959327,103.7480871239683,10.0,0,0.0,0.199,0.13,2,19.999214,0.0030436064,0.0030436064,10.0,7.634753397465261e-05,7.634753397465261e-05,2,2,4.6474368605894025e-07,4.6474368605894025e-07,0.0
BLSZ01,TUKANG,BOON LAY,1.3256504097604354,103.70925050733476,10.0,0,0.0,0.199,0.13,16,159.97351,0.024349432,0.024349432,10.0,7.634753397465261e-05,7.634753397465261e-05,16,2,2.9744305390135897e-05,3.718038173766987e-06,-2.602626721636891e-05
BTSZ06,CORONATION ROAD,BUKIT TIMAH,1.325569983582593,103.8015380549468,6690.0,0,0.3817638266068759,0.199,0.13,11,110.0086,0.016744152,0.016744152,6690.0,0.0510765002290426,0.0510765002290426,11,8,0.009407559518094367,0.006841861467704994,-0.002565698050389373
BDSZ03,KEMBANGAN,BEDOK,1.3248058411093029,103.91561442223085,37460.0,0,1.0,0.199,0.13,18,179.99794,0.0273974,0.0273974,37460.0,0.2859978622690487,0.2859978622690487,18,68,0.14104076097114063,0.5328206525576424,0.39177989158650184
NVSZ04,DUNEARN,NOVENA,1.3261898343656566,103.8200696432102,3960.0,0,0.0,0.199,0.13,9,89.995926,0.013697975,0.013697975,3960.0,0.030233623453962438,0.030233623453962438,9,4,0.00372725476408612,0.0016565576729271644,-0.0020706970911589556
CLSZ02,SUNSET WAY,CLEMENTI,1.3262830305995317,103.76866786978609,5650.0,0,0.0,0.199,0.13,49,490.13788,0.074604556,0.074604556,5650.0,0.04313635669567873,0.04313635669567873,49,28,0.1576902681981982,0.09010872468468469,-0.06758154351351352
BTSZ01,ANAK BUKIT,BUKIT TIMAH,1.3378622144768135,103.77157034866184,21870.0,0,0.1167809785093735,0.199,0.13,15,150.01755,0.022834012,0.022834012,21870.0,0.16697205680256527,0.16697205680256527,15,34,0.05718962923041686,0.12962982625561154,0.07244019702519468
BTSZ02,SWISS CLUB,BUKIT TIMAH,1.3406373287907798,103.79230482128298,5340.0,0,0.4782771535580524,0.199,0.13,18,179.99976,0.027397675,0.027397675,5340.0,0.0407695831424645,0.0407695831424645,18,10,0.020105852198808977,0.01116991788822721,-0.008935934310581766
TMSZ05,XILIN,TAMPINES,1.3292661222831743,103.96881076742508,1760.0,0,1.0,0.199,0.13,59,589.96063,0.089798816,0.089798816,1760.0,0.01343716597953886,0.01343716597953886,59,11,0.07119185412612612,0.013273057548938769,-0.057918796577187355
CLSZ03,FABER,CLEMENTI,1.3219563635485436,103.75684865813272,5360.0,0,0.0,0.199,0.13,12,119.99938,0.018264873,0.018264873,5360.0,0.040922278210413804,0.040922278210413804,12,7,0.008969282572606506,0.005232081500687128,-0.0037372010719193783
NVSZ03,MALCOLM,NOVENA,1.3231195131653424,103.83394084355982,2950.0,0,0.0,0.199,0.13,9,89.995926,0.013697975,0.013697975,2950.0,0.02252252252252252,0.02252252252252252,9,3,0.002776616554054054,0.0009255388513513512,-0.0018510777027027027
BDSZ06,BEDOK SOUTH,BEDOK,1.321442781267262,103.94455412697307,46690.0,0,1.0,0.199,0.13,30,299.959,0.045656968,0.045656968,46690.0,0.35646663612765306,0.35646663612765306,30,142,0.488255573962437,2.3110763834222015,1.8228208094597644
HGSZ09,DEFU INDUSTRIAL PARK,HOUGANG,1.351697665353808,103.89578138323309,20.0,0,1.0,0.199,0.13,32,319.9646,0.048702065,0.048702065,20.0,0.00015269506794930523,0.00015269506794930523,32,2,0.00023797008398228738,1.4873130248892961e-05,-0.00022309695373339442
CBSZ01,CHANGI BAY,CHANGI BAY,1.3274226558983535,104.02635671911914,0.0,0,0.8,0.199,0.13,0,0.009252905,8.861675e-07,8.861675e-07,0.0,0.0,0.0,0,2,0.0,0.0,0.0
PLSZ02,PAYA LEBAR EAST,PAYA LEBAR,1.3556120684469184,103.92376317131352,10.0,0,0.0,0.199,0.13,15,150.00562,0.022832194,0.022832194,10.0,7.634753397465261e-05,7.634753397465261e-05,15,2,2.614772560696289e-05,3.486363414261719e-06,-2.266136219270117e-05
BKSZ02,HONG KAH NORTH,BUKIT BATOK,1.3627121391666444,103.74800378647188,26150.0,0,0.0,0.199,0.13,6,59.99589,0.009131598,0.009131598,26150.0,0.1996488013437166,0.1996488013437166,6,16,0.01093867557031608,0.029169801520842874,0.018231125950526797
HGSZ06,KOVAN,HOUGANG,1.3629303140034583,103.880680210422,24810.0,0,1.0,0.199,0.13,20,199.99638,0.03044141,0.03044141,24810.0,0.18941823179111314,0.18941823179111314,20,51,0.11532316110856618,0.2940740608268438,0.17875089971827762
AMSZ03,CHONG BOON,ANG MO KIO,1.364264765429552,103.85565259133747,26500.0,0,1.0,0.199,0.13,4,40.00306,0.0060884403,0.0060884403,26500.0,0.20232096503282945,0.20232096503282945,4,11,0.004927276468163079,0.013550010287448467,0.008622733819285388
SGSZ04,SERANGOON GARDEN,SERANGOON,1.3627383541972071,103.8666628375142,36080.0,0,0.5995288248337028,0.199,0.13,14,140.00012,0.021309234,0.021309234,36080.0,0.27546190258054665,0.27546190258054665,14,51,0.082178349962437,0.2993639891488777,0.21718563918644068
HGSZ01,HOUGANG CENTRAL,HOUGANG,1.3696686663059998,103.89146236348546,4720.0,0,1.0,0.199,0.13,2,20.009142,0.0030451177,0.0030451177,4720.0,0.036036036036036036,0.036036036036036036,2,1,0.00021946794234234236,0.00010973397117117118,-0.00010973397117117118
PRSZ07,LOYANG EAST,PASIR RIS,1.367988795821077,103.97342681015697,2140.0,0,1.0,0.199,0.13,16,159.97641,0.024349874,0.024349874,2140.0,0.01633837227057566,0.01633837227057566,16,4,0.006365396898457779,0.0015913492246144448,-0.0047740476738433344
BPSZ06,DAIRY FARM,BUKIT PANJANG,1.3684317900068617,103.77204619195874,6940.0,0,0.0,0.199,0.13,18,180.00948,0.027399156,0.027399156,6940.0,0.05298518857840892,0.05298518857840892,18,13,0.026131490055886396,0.018872742818140175,-0.0072587472377462214
PRSZ05,PASIR RIS DRIVE,PASIR RIS,1.3688664933735912,103.95941064854476,54420.0,0,0.5449099595736862,0.199,0.13,8,80.01403,0.012178606,0.012178606,54420.0,0.41548327989005956,0.41548327989005956,8,44,0.04048005732295007,0.2226403152762254,0.18216025795327534
TMSZ01,TAMPINES NORTH,TAMPINES,1.3662446765050005,103.9390256518351,8040.0,0,1.0,0.199,0.13,21,209.99748,0.031963702,0.031963702,8040.0,0.061383417315620706,0.061383417315620706,21,18,0.041202866435180945,0.035316742658726516,-0.005886123776454429
AMSZ02,CHENG SAN,ANG MO KIO,1.3727147446745198,103.8540952773522,28070.0,0,1.0,0.199,0.13,7,70.004585,0.010655045,0.010655045,28070.0,0.2143075278668499,0.2143075278668499,7,20,0.015984194472820276,0.04566912706520079,0.029684932592380517
AMSZ07,SEMBAWANG HILLS,ANG MO KIO,1.3747151224132126,103.83076595030006,6850.0,0,1.0,0.199,0.13,11,109.997955,0.016742533,0.016742533,6850.0,0.052298060772637045,0.052298060772637045,11,8,0.009631622091540695,0.00700481606657505,-0.0026268060249656448
BPSZ05,JELEBU,BUKIT PANJANG,1.3759342998688049,103.76624365255262,31310.0,0,0.0,0.199,0.13,5,49.99817,0.0076098205,0.0076098205,31310.0,0.23904412887463736,0.23904412887463736,5,16,0.009095414561574287,0.02910532659703772,0.020009912035463432
CKSZ02,KEAT HONG,CHOA CHU KANG,1.3754921030415062,103.74645966585923,38180.0,0,1.0,0.199,0.13,17,170.01816,0.025878353,0.025878353,38180.0,0.2914948847152237,0.2914948847152237,17,66,0.12823792791403268,0.497864896607421,0.3696269686933883
KLSZ01,BENDEMEER,KALLANG,1.3222022725143092,103.86185623835864,37570.0,0,1.0,0.199,0.13,5,50.010937,0.0076117637,0.0076117637,37570.0,0.2868376851427699,0.2868376851427699,5,19,0.010916703397808827,0.04148347291167354,0.030566769513864715
NVSZ01,BALESTIER,NOVENA,1.3255134555554808,103.85106739498433,32430.0,0,0.0,0.199,0.13,21,209.99382,0.031963143,0.031963143,32430.0,0.24759505267979845,0.24759505267979845,21,69,0.16619223757283555,0.5460602091678882,0.3798679715950527
TSSZ02,TUAS PROMENADE,TUAS,1.3302832757910084,103.63300337311291,10.0,0,0.0,0.199,0.13,32,319.9875,0.048705548,0.048705548,10.0,7.634753397465261e-05,7.634753397465261e-05,32,2,0.00011899355138189036,7.437096961368147e-06,-0.00011155645442052221
SGSZ06,SERANGOON CENTRAL,SERANGOON,1.3522330390246091,103.870675243507,24760.0,0,0.8736268174474959,0.199,0.13,10,100.000496,0.015220795,0.015220795,24760.0,0.18903649412123988,0.18903649412123988,10,25,0.028772857245380975,0.07193214311345243,0.043159285868071454
BSSZ03,BISHAN EAST,BISHAN,1.349823907974759,103.85301426192922,28310.0,0,0.0,0.199,0.13,19,190.05507,0.02892822,0.02892822,28310.0,0.21613986868224155,0.21613986868224155,19,55,0.11879829176820889,0.34388979196060465,0.22509150019239577
TMSZ03,TAMPINES WEST,TAMPINES,1.3485286052102834,103.93594937405771,79670.0,0,1.0,0.199,0.13,16,159.99112,0.024352113,0.024352113,79670.0,0.6082608031760575,0.6082608031760575,16,129,0.23699897299862577,1.9108042198014203,1.6738052468027946
BKSZ03,BRICKWORKS,BUKIT BATOK,1.3556445845059295,103.74219477242816,19820.0,0,0.0,0.199,0.13,17,170.03151,0.025880385,0.025880385,19820.0,0.15132081233776148,0.15132081233776148,17,34,0.06657609499083829,0.13315218998167658,0.06657609499083829
SGSZ03,SERANGOON NORTH,SERANGOON,1.374381173142493,103.87338413553088,15940.0,0,1.0,0.199,0.13,6,60.00469,0.009132937,0.009132937,15940.0,0.12169796915559628,0.12169796915559628,6,10,0.006668759311956024,0.01111459885326004,0.004445839541304016
BKSZ04,GUILIN,BUKIT BATOK,1.3554639637823878,103.75381202250212,12940.0,0,0.0,0.199,0.13,9,89.99233,0.013697428,0.013697428,12940.0,0.09879370896320049,0.09879370896320049,9,12,0.012178977438387539,0.01623863658451672,0.004059659146129182
JWSZ01,WENYA,JURONG WEST,1.3557038069936502,103.70710197573406,8280.0,0,1.0,0.199,0.13,12,119.99852,0.018264743,0.018264743,8280.0,0.06321575813101236,0.06321575813101236,12,11,0.013855434909757214,0.012700815333944113,-0.0011546195758131012
BPSZ07,NATURE RESERVE,BUKIT PANJANG,1.353468550298314,103.7778109120893,3850.0,0,0.0,0.199,0.13,50,499.9401,0.07609657,0.07609657,3850.0,0.02939380058024126,0.02939380058024126,50,20,0.11183837017101848,0.0447353480684074,-0.06710302210261108
TMSZ02,TAMPINES EAST,TAMPINES,1.3544309377044694,103.95124157114532,130980.0,0,0.6430981829286914,0.199,0.13,36,360.01355,0.054798014,0.054798014,130980.0,1.0,1.0,36,476,1.972728504,26.083854664,24.11112616
HGSZ07,LORONG AH SOO,HOUGANG,1.356830699585221,103.88660636262966,32320.0,0,1.0,0.199,0.13,7,70.00477,0.0106550725,0.0106550725,32320.0,0.24675522980607725,0.24675522980607725,7,23,0.018404364043365398,0.06047148185677202,0.04206711781340662
PRSZ08,FLORA DRIVE,PASIR RIS,1.359301249314618,103.96632188527474,14680.0,0,1.0,0.199,0.13,4,40.006115,0.0060889055,0.0060889055,14680.0,0.11207817987479005,0.11207817987479005,4,6,0.0027297337834783935,0.004094600675217591,0.0013648668917391978
BKSZ05,HILLVIEW,BUKIT BATOK,1.355663635228613,103.76392242100276,19300.0,0,0.0,0.199,0.13,16,159.99,0.024351943,0.024351943,19300.0,0.14735074057107955,0.14735074057107955,16,32,0.05741242936631547,0.11482485873263094,0.05741242936631547
CLSZ01,TOH TUCK,CLEMENTI,1.3317544849187777,103.756340422445,20.0,0,0.0,0.199,0.13,17,170.01692,0.025878165,0.025878165,20.0,0.00015269506794930523,0.00015269506794930523,17,2,6.717495877233166e-05,7.902936326156666e-06,-5.9272022446174996e-05
NVSZ05,MOUNT PLEASANT,NOVENA,1.3338172793126388,103.8289703131776,690.0,0,0.0,0.199,0.13,28,280.03973,0.042625006,0.042625006,690.0,0.005267979844251031,0.005267979844251031,28,2,0.006287334829134219,0.00044909534493815854,-0.00583823948419606
BTSZ05,HILLCREST,BUKIT TIMAH,1.3331573244831736,103.80822945622536,9470.0,0,0.2696937697993664,0.199,0.13,6,60.000587,0.009132313,0.009132313,9470.0,0.07230111467399603,0.07230111467399603,6,6,0.0039616584567109476,0.0039616584567109476,0.0
TPSZ12,JOO SENG,TOA PAYOH,1.3365974664102651,103.8823265529691,8150.0,0,1.0,0.199,0.13,18,179.99335,0.027396701,0.027396701,8150.0,0.06222324018934188,0.06222324018934188,18,15,0.03068480712093449,0.025570672600778742,-0.005114134520155748
JWSZ05,CHIN BEE,JURONG WEST,1.3349783902784658,103.71319775263308,0.0,0,1.0,0.199,0.13,24,239.99821,0.036530185,0.036530185,0.0,0.0,0.0,24,2,0.0,0.0,0.0
TPSZ05,LORONG 8 TOA PAYOH,TOA PAYOH,1.340878966805798,103.857102042756,7160.0,0,1.0,0.199,0.13,1,10.005453,0.001522432,0.001522432,7160.0,0.05466483432585127,0.05466483432585127,1,1,8.32234930523744e-05,8.32234930523744e-05,0.0
JESZ03,TOH GUAN,JURONG EAST,1.3374866777328658,103.7461061215432,14590.0,0,0.0,0.199,0.13,4,39.99732,0.0060875667,0.0060875667,14590.0,0.11139105206901817,0.11139105206901817,4,6,0.0027124018370132843,0.004068602755519927,0.0013562009185066428
TMSZ04,SIMEI,TAMPINES,1.3406648192140402,103.95400284218852,39450.0,0,1.0,0.199,0.13,17,170.01985,0.02587861,0.02587861,39450.0,0.3011910215300046,0.3011910215300046,17,68,0.13250488468850208,0.5300195387540083,0.39751465406550623
JWSZ02,BOON LAY PLACE,JURONG WEST,1.345863707940132,103.71114826234448,29340.0,0,1.0,0.199,0.13,11,109.997955,0.016742533,0.016742533,29340.0,0.22400366468163077,0.22400366468163077,11,33,0.04125427622858452,0.12376282868575353,0.08250855245716901
BKSZ08,BUKIT BATOK EAST,BUKIT BATOK,1.3491364513971096,103.75753706871768,12690.0,0,0.0,0.199,0.13,7,69.99146,0.010653047,0.010653047,12690.0,0.09688502061383417,0.09688502061383417,7,9,0.0072248447473660105,0.009289086103756299,0.0020642413563902885
BKSZ06,BUKIT BATOK WEST,BUKIT BATOK,1.347484096771309,103.74224902704346,15000.0,0,0.0,0.199,0.13,3,29.995306,0.004565136,0.004565136,15000.0,0.11452130096197893,0.11452130096197893,3,5,0.0015684159413650938,0.0026140265689418235,0.0010456106275767297
BKSZ07,BUKIT BATOK CENTRAL,BUKIT BATOK,1.3479944652936149,103.75041327602172,27290.0,0,0.0,0.199,0.13,10,100.00645,0.015221701,0.015221701,27290.0,0.20835242021682698,0.20835242021682698,10,28,0.03171478243166896,0.08880139080867308,0.05708660837700412
SGSZ07,UPPER PAYA LEBAR,SERANGOON,1.3465667919059645,103.87704726246186,16920.0,0,1.0,0.199,0.13,6,60.001633,0.009132472,0.009132472,16920.0,0.12918002748511223,0.12918002748511223,6,11,0.007078397903802107,0.012977062823637198,0.0058986649198350906
HGSZ08,TAI SENG,HOUGANG,1.3437712144760867,103.8876193790896,13830.0,0,1.0,0.199,0.13,24,240.03865,0.03653634,0.03653634,13830.0,0.10558863948694457,0.10558863948694457,24,34,0.09258773837837837,0.1311659627027027,0.038578224324324326
TSSZ01,TENGEH,TUAS,1.337639170805056,103.65179366608812,0.0,0,0.8,0.199,0.13,26,259.99002,0.03957319,0.03957319,0.0,0.0,0.0,26,2,0.0,0.0,0.0
JESZ01,YUHUA WEST,JURONG EAST,1.3470099287799815,103.73197209869473,19160.0,0,0.0,0.199,0.13,3,29.99866,0.0045656464,0.0045656464,19160.0,0.14628187509543442,0.14628187509543442,3,6,0.0020036139492441594,0.004007227898488319,0.0020036139492441594
TPSZ03,BRADDELL,TOA PAYOH,1.3405389649613233,103.8495968905182,9810.0,0,1.0,0.199,0.13,23,229.97618,0.03500471,0.03500471,9810.0,0.07489693082913422,0.07489693082913422,23,23,0.06030014290196977,0.06030014290196977,0.0
TPSZ10,BIDADARI,TOA PAYOH,1.3411039355423922,103.874944712625,0.0,0,1.0,0.199,0.13,7,70.00132,0.010654548,0.010654548,0.0,0.0,0.0,7,2,0.0,0.0,0.0
TPSZ08,WOODLEIGH,TOA PAYOH,1.3400358962445793,103.8663000048399,2450.0,0,1.0,0.199,0.13,9,90.005585,0.013699445,0.013699445,2450.0,0.01870514582378989,0.01870514582378989,9,3,0.0023062510478699034,0.0007687503492899678,-0.0015375006985799355
JWSZ04,TAMAN JURONG,JURONG WEST,1.3345100380139086,103.721196983089,39920.0,0,1.0,0.199,0.13,13,130.00125,0.019787282,0.019787282,39920.0,0.30477935562681324,0.30477935562681324,13,53,0.07839981574835853,0.31963001805100016,0.24123020230264164
JESZ04,LAKESIDE (LEISURE),JURONG EAST,1.336246924107684,103.72847876002486,1070.0,0,0.0,0.199,0.13,23,229.99506,0.03500758,0.03500758,1070.0,0.00816918613528783,0.00816918613528783,23,3,0.00657761905481753,0.0008579503114979386,-0.0057196687433195914
TPSZ01,TOA PAYOH WEST,TOA PAYOH,1.3399225703175424,103.84179372301662,14360.0,0,1.0,0.199,0.13,9,90.00194,0.01369889,0.01369889,14360.0,0.10963505878760116,0.10963505878760116,9,14,0.013516907494273936,0.021026300546648342,0.0075093930523744065
BDSZ01,KAKI BUKIT,BEDOK,1.3355792095388053,103.90956464292366,37150.0,0,1.0,0.199,0.13,25,249.94952,0.0380449,0.0380449,37150.0,0.2836310887158345,0.2836310887158345,25,94,0.26976791017712626,1.0143273422659949,0.7445594320888687
JESZ02,YUHUA EAST,JURONG EAST,1.3404130171783215,103.73883666796638,24770.0,0,0.0,0.199,0.13,12,120.00387,0.018265557,0.018265557,24770.0,0.18911284165521453,0.18911284165521453,12,30,0.041451016664223544,0.10362754166055888,0.06217652499633533
BKSZ09,BUKIT BATOK SOUTH,BUKIT BATOK,1.3410397550087978,103.75812606641416,14930.0,0,0.0,0.199,0.13,14,139.99182,0.021307971,0.021307971,14930.0,0.11398686822415637,0.11398686822415637,14,22,0.03400360435501603,0.05343423541502519,0.01943063106000916
JWSZ09,JURONG WEST CENTRAL,JURONG WEST,1.34013951552678,103.7020987055076,63760.0,0,1.0,0.199,0.13,16,159.98679,0.024351453,0.024351453,63760.0,0.4867918766223851,0.4867918766223851,16,103,0.18966543206962894,1.2209712189482362,1.0313057868786073
BDSZ02,BEDOK RESERVOIR,BEDOK,1.3400407242512038,103.92632946411044,25470.0,0,1.0,0.199,0.13,24,239.98604,0.036528334,0.036528334,25470.0,0.1944571690334402,0.1944571690334402,24,62,0.1704767140595511,0.4403981779871736,0.2699214639276225
YSSZ05,LOWER SELETAR,YISHUN,1.409055850395713,103.8462370960546,18660.0,0,0.0,0.199,0.13,57,569.9209,0.08674852,0.08674852,18660.0,0.14246449839670178,0.14246449839670178,57,108,0.7044393101420064,1.3347271139532753,0.6302878038112688
PGSZ01,NORTHSHORE,PUNGGOL,1.416190725666271,103.90677370928309,460.0,0,1.0,0.199,0.13,38,379.87894,0.057821773,0.057821773,460.0,0.0035119865628340206,0.0035119865628340206,38,2,0.007716633012979082,0.00040613857963047795,-0.007310494433348604
MDSZ03,MANDAI ESTATE,MANDAI,1.4265616755249158,103.82507577772586,2090.0,0,0.0,0.199,0.13,2,20.000746,0.0030438397,0.0030438397,2090.0,0.0159566346007024,0.0159566346007024,2,1,9.71388757520232e-05,4.85694378760116e-05,-4.85694378760116e-05
YSSZ01,YISHUN CENTRAL,YISHUN,1.4267052463079255,103.83765941163202,2620.0,0,0.0,0.199,0.13,1,10.002281,0.0015219492,0.0015219492,2620.0,0.020003053901358987,0.020003053901358987,1,1,3.0443631882730188e-05,3.0443631882730188e-05,0.0
PRSZ03,PASIR RIS CENTRAL,PASIR RIS,1.3720645500275812,103.94793935838524,32240.0,0,0.919789081885856,0.199,0.13,7,70.00477,0.0106550725,0.0106550725,32240.0,0.24614444953428005,0.24614444953428005,7,23,0.018358808686822416,0.06032179997098794,0.04196299128416552
BKSZ01,GOMBAK,BUKIT BATOK,1.3692921821184452,103.75747560540589,9930.0,0,0.0,0.199,0.13,16,159.99191,0.024352234,0.024352234,9930.0,0.07581310123683005,0.07581310123683005,16,17,0.029539494105359596,0.03138571248694457,0.0018462183815849756
PLSZ01,PAYA LEBAR NORTH,PAYA LEBAR,1.3731643342618265,103.92580019017248,30.0,0,0.0,0.199,0.13,9,89.99228,0.01369742,0.01369742,30.0,0.00022904260192395785,0.00022904260192395785,9,2,2.823563444800733e-05,6.274585432890518e-06,-2.1961049015116813e-05
HGSZ03,HOUGANG EAST,HOUGANG,1.3763227267431128,103.89736884348844,24920.0,0,1.0,0.199,0.13,9,90.00194,0.01369889,0.01369889,24920.0,0.19025805466483434,0.19025805466483434,9,23,0.023456917462207974,0.05994545573675371,0.036488538274545734
HGSZ10,LORONG HALUS,HOUGANG,1.369621684813709,103.90403835744694,0.0,0,1.0,0.199,0.13,7,70.00132,0.010654548,0.010654548,0.0,0.0,0.0,7,2,0.0,0.0,0.0
HGSZ02,KANGKAR,HOUGANG,1.3696209586177954,103.89821728461484,32290.0,0,1.0,0.199,0.13,18,179.98416,0.027395302,0.027395302,32290.0,0.2465261872041533,0.2465261872041533,18,59,0.12156586828859368,0.39846590161261264,0.27690003332401897
CHSZ02,CHANGI WEST,CHANGI,1.3682819347455926,103.97783482894128,1300.0,0,0.0,0.199,0.13,38,380.15497,0.057863787,0.057863787,1300.0,0.00992517941670484,0.00992517941670484,38,5,0.021823721772789736,0.0028715423385249654,-0.01895217943426477
QTSZ02,HOLLAND DRIVE,QUEENSTOWN,1.3086145105548306,103.79461594726676,12680.0,0,1.0,0.199,0.13,9,90.005585,0.013699445,0.013699445,12680.0,0.09680867307985952,0.09680867307985952,9,12,0.011936025831424646,0.015914701108566194,0.0039786752771415485
HGSZ04,HOUGANG WEST,HOUGANG,1.37356005816862,103.8858780214234,45460.0,0,1.0,0.199,0.13,12,120.002304,0.018265318,0.018265318,45460.0,0.3470758894487708,0.3470758894487708,12,55,0.07607341789097571,0.34866983200030544,0.2725964141093297
PLSZ03,PAYA LEBAR WEST,PAYA LEBAR,1.372527654796822,103.9109392939452,0.0,0,0.8,0.199,0.13,9,90.00108,0.01369876,0.01369876,0.0,0.0,0.0,9,2,0.0,0.0,0.0
BPSZ04,BANGKIT,BUKIT PANJANG,1.3771109378904378,103.77429337580732,22270.0,0,0.0,0.199,0.13,4,39.997135,0.006087539,0.006087539,22270.0,0.1700259581615514,0.1700259581615514,4,9,0.004140158605283249,0.009315356861887312,0.005175198256604062
SESZ01,LORONG HALUS NORTH,SENGKANG,1.3816782386957944,103.91076865154724,0.0,0,1.0,0.199,0.13,6,60.00123,0.00913241,0.00913241,0.0,0.0,0.0,6,2,0.0,0.0,0.0
CKSZ04,PENG SIANG,CHOA CHU KANG,1.3793425069843497,103.73862952878794,34720.0,0,1.0,0.199,0.13,7,70.00112,0.010654517,0.010654517,34720.0,0.26507863795999387,0.26507863795999387,7,25,0.0197699939813712,0.07060712136204,0.050837127380668805
PRSZ02,PASIR RIS WEST,PASIR RIS,1.3792860468144006,103.93981218816111,35790.0,0,0.8285554624196703,0.199,0.13,38,379.9602,0.05783414,0.05783414,35790.0,0.2732478240952817,0.2732478240952817,38,138,0.600516010710032,2.1808213020522214,1.5803052913421893
AMSZ09,YIO CHU KANG WEST,ANG MO KIO,1.3812816754752972,103.84006236246168,24150.0,0,1.0,0.199,0.13,10,100.000496,0.015220795,0.015220795,24150.0,0.18437929454878607,0.18437929454878607,10,25,0.028063994445716906,0.07015998611429226,0.04209599166857536
CHSZ01,CHANGI POINT,CHANGI,1.3903064171558863,103.98252404142843,540.0,0,0.0,0.199,0.13,16,159.98169,0.024350677,0.024350677,540.0,0.004122766834631242,0.004122766834631242,16,1,0.0016062746165826846,0.00010039216353641779,-0.0015058824530462668
SESZ03,SENGKANG TOWN CENTRE,SENGKANG,1.3916152059872269,103.89768455966691,61790.0,0,1.0,0.199,0.13,11,110.0093,0.01674426,0.01674426,61790.0,0.4717514124293785,0.4717514124293785,11,69,0.0868904113559322,0.5450398530508475,0.4581494416949152
SESZ04,ANCHORVALE,SENGKANG,1.3944356296935974,103.88918935546252,48120.0,0,1.0,0.199,0.13,11,110.00174,0.016743109,0.016743109,48120.0,0.3673843334860284,0.3673843334860284,11,54,0.06766271534493815,0.33216242078424185,0.2644997054393037
SESZ07,SENGKANG WEST,SENGKANG,1.3955292585194436,103.863158609492,10.0,0,1.0,0.199,0.13,23,229.97179,0.03500404,0.03500404,10.0,7.634753397465261e-05,7.634753397465261e-05,23,2,6.146685906245228e-05,5.344944266300198e-06,-5.612191479615208e-05
SESZ06,FERNVALE,SENGKANG,1.3951703225152925,103.8765052469368,58800.0,0,1.0,0.199,0.13,22,219.9901,0.0334847,0.0334847,58800.0,0.4489234997709574,0.4489234997709574,22,131,0.3307055116811727,1.9692010013742558,1.6384954896930832
PGSZ04,PUNGGOL FIELD,PUNGGOL,1.3947234360686551,103.91126044880212,48960.0,0,1.0,0.199,0.13,15,150.00018,0.02283137,0.02283137,48960.0,0.3737975263398992,0.3737975263398992,15,75,0.12801464443426477,0.6400732221713238,0.512058577737059
CKSZ06,YEW TEE,CHOA CHU KANG,1.4006827822362349,103.74793637475932,40390.0,0,1.0,0.199,0.13,13,130.00648,0.019788079,0.019788079,40390.0,0.30836768972362194,0.30836768972362194,13,53,0.07932605466888075,0.32340622288082155,0.24408016821194078
PRSZ01,PASIR RIS WAFER FAB PARK,PASIR RIS,1.3888407401653788,103.92868004425836,10.0,0,1.0,0.199,0.13,67,669.98517,0.101979546,0.101979546,10.0,7.634753397465261e-05,7.634753397465261e-05,67,2,0.0005216544191479615,1.5571773705909298e-05,-0.0005060826454420523
HGSZ05,TRAFALGAR,HOUGANG,1.3810656999132205,103.88140598487529,49200.0,0,1.0,0.199,0.13,19,190.00847,0.028921125,0.028921125,49200.0,0.3756298671552909,0.3756298671552909,19,95,0.20640912849289966,1.0320456424644984,0.8256365139715987
CKSZ01,TECK WHYE,CHOA CHU KANG,1.3815935321076782,103.75487063841146,24320.0,0,1.0,0.199,0.13,6,60.004505,0.009132909,0.009132909,24320.0,0.18567720262635518,0.18567720262635518,6,15,0.010174637969766377,0.025436594924415943,0.015261956954649566
CKSZ03,CHOA CHU KANG CENTRAL,CHOA CHU KANG,1.3850043023002103,103.74763693903658,22530.0,0,1.0,0.199,0.13,5,50.00715,0.007611187,0.007611187,22530.0,0.17201099404489234,0.17201099404489234,5,12,0.00654603920865781,0.015710494100778745,0.009164454892120935
BPSZ03,FAJAR,BUKIT PANJANG,1.3847849727606332,103.77114573954192,27820.0,0,0.0,0.199,0.13,5,49.994953,0.007609331,0.007609331,27820.0,0.2123988395174836,0.2123988395174836,5,15,0.008081065369522064,0.024243196108566196,0.01616213073904413
BPSZ01,SENJA,BUKIT PANJANG,1.3861165334463454,103.76051545375846,20170.0,0,0.0,0.199,0.13,3,29.998474,0.004565618,0.004565618,20170.0,0.15399297602687434,0.15399297602687434,3,7,0.0021092193096655977,0.004921511722553062,0.002812292412887464
BPSZ02,SAUJANA,BUKIT PANJANG,1.3862188017591266,103.7662552671834,25920.0,0,0.0,0.199,0.13,6,59.99589,0.009131598,0.009131598,25920.0,0.19789280806229959,0.19789280806229959,6,16,0.010842465421896473,0.02891324112505726,0.018070775703160784
SGSZ01,SELETAR HILLS,SERANGOON,1.3834751909404217,103.86635885918552,14700.0,0,1.0,0.199,0.13,27,270.01675,0.041099384,0.041099384,14700.0,0.11223087494273935,0.11223087494273935,27,41,0.12454073530004581,0.18911741286303252,0.06457667756298671
SESZ05,COMPASSVALE,SENGKANG,1.3849026594422504,103.88996704421318,20960.0,0,1.0,0.199,0.13,13,129.99457,0.019786265,0.019786265,20960.0,0.1600244312108719,0.1600244312108719,13,28,0.04116171543136357,0.08865600246755231,0.04749428703618874
AMSZ12,YIO CHU KANG EAST,ANG MO KIO,1.3834703885933706,103.85339606458112,4200.0,0,1.0,0.199,0.13,12,119.99852,0.018264743,0.018264743,4200.0,0.0320659642693541,0.0320659642693541,12,6,0.007028119157123224,0.003514059578561612,-0.003514059578561612
AMSZ10,YIO CHU KANG,ANG MO KIO,1.3855809499123442,103.84629172704618,20.0,0,1.0,0.199,0.13,3,30.006866,0.0045668953,0.0045668953,20.0,0.00015269506794930523,0.00015269506794930523,3,2,2.0920271644525882e-06,1.3946847763017254e-06,-6.973423881508628e-07
PRSZ06,LOYANG WEST,PASIR RIS,1.3770083072783856,103.9707356852154,220.0,0,1.0,0.199,0.13,14,139.99149,0.021307921,0.021307921,220.0,0.0016796457474423576,0.0016796457474423576,14,1,0.0005010566245228279,3.578975889448771e-05,-0.0004652668656283402
AMSZ08,TAGORE,ANG MO KIO,1.386805517441942,103.82833841029569,7950.0,0,1.0,0.199,0.13,36,359.90524,0.054781526,0.054781526,7950.0,0.06069628950984883,0.06069628950984883,36,29,0.11970127302794319,0.09642602549473202,-0.02327524753321117
PRSZ04,PASIR RIS PARK,PASIR RIS,1.3799972272940846,103.9548937377897,7620.0,0,1.0,0.199,0.13,10,100.00031,0.015220767,0.015220767,7620.0,0.058176820888685296,0.058176820888685296,10,8,0.008854958355474118,0.007083966684379294,-0.0017709916710948242
CKSZ05,CHOA CHU KANG NORTH,CHOA CHU KANG,1.3924321408992235,103.74658390410336,31930.0,0,1.0,0.199,0.13,19,190.0162,0.028922305,0.028922305,31930.0,0.2437776759810658,0.2437776759810658,19,62,0.13396163364139563,0.4371379624087647,0.30317632876736905
SESZ02,RIVERVALE,SENGKANG,1.3876127378748302,103.90500354667653,59700.0,0,1.0,0.199,0.13,21,209.99156,0.0319628,0.0319628,59700.0,0.4557947778286761,0.4557947778286761,21,127,0.30593802382043056,1.850196620247366,1.5442585964269355
AMSZ11,YIO CHU KANG NORTH,ANG MO KIO,1.3937001966533522,103.84685765414244,0.0,0,1.0,0.199,0.13,17,170.01917,0.025878506,0.025878506,0.0,0.0,0.0,17,2,0.0,0.0,0.0
JWSZ08,YUNNAN,JURONG WEST,1.3445542824221377,103.69487869779782,67500.0,0,1.0,0.199,0.13,14,140.00166,0.021309469,0.021309469,67500.0,0.5153458543289052,0.5153458543289052,14,96,0.15374445109940452,1.054247664681631,0.9005032135822265
SGSZ05,LORONG CHUAN,SERANGOON,1.3484712121681226,103.86322059948034,8490.0,0,1.0,0.199,0.13,12,119.99852,0.018264743,0.018264743,8490.0,0.06481905634448007,0.06481905634448007,12,11,0.014206840867613375,0.013022937461978927,-0.001183903405634448
JWSZ03,HONG KAH,JURONG WEST,1.349894512593749,103.72106957567703,53890.0,0,1.0,0.199,0.13,8,80.01385,0.012178578,0.012178578,53890.0,0.411436860589403,0.411436860589403,8,44,0.040085727190105364,0.2204714995455795,0.18038577235547415
SLSZ04,SELETAR,SELETAR,1.4089950842134469,103.88158652893787,280.0,0,0.0,0.199,0.13,28,280.00577,0.042619836,0.042619836,280.0,0.002137730951290273,0.002137730951290273,28,1,0.002551072791571232,9.110974255611543e-05,-0.0024599630490151165
SKSZ04,PANG SUA,SUNGEI KADUT,1.4126204735165562,103.74827249398513,20.0,0,0.0,0.199,0.13,18,180.0218,0.027401032,0.027401032,20.0,0.00015269506794930523,0.00015269506794930523,18,2,7.531204397617956e-05,8.368004886242173e-06,-6.694403908993738e-05
SLSZ01,SELETAR AEROSPACE PARK,SELETAR,1.4123542067026713,103.86648037319792,20.0,0,0.0,0.199,0.13,22,220.01903,0.033489104,0.033489104,20.0,0.00015269506794930523,0.00015269506794930523,22,2,0.00011249966223850968,1.02272420216827e-05,-0.00010227242021682698
YSSZ08,KHATIB,YISHUN,1.4179994264687403,103.82865163230818,10250.0,0,0.0,0.199,0.13,7,69.99146,0.010653047,0.010653047,10250.0,0.07825622232401894,0.07825622232401894,7,8,0.005835670501221561,0.006669337715681784,0.0008336672144602228
MDSZ01,MANDAI WEST,MANDAI,1.418319234575064,103.78433627163936,0.0,0,0.8,0.199,0.13,70,699.98486,0.10654587,0.10654587,0.0,0.0,0.0,70,2,0.0,0.0,0.0
PGSZ07,CONEY ISLAND,PUNGGOL,1.4083288437387032,103.92253213134494,0.0,0,1.0,0.199,0.13,9,89.99997,0.013698591,0.013698591,0.0,0.0,0.0,9,2,0.0,0.0,0.0
YSSZ04,YISHUN SOUTH,YISHUN,1.418460517217909,103.83781644442058,42240.0,0,0.0,0.199,0.13,9,90.003334,0.013699103,0.013699103,42240.0,0.32249198350893266,0.32249198350893266,9,39,0.039760658088868535,0.17229618505176364,0.1325355269628951
SKSZ05,RESERVOIR VIEW,SUNGEI KADUT,1.4317423131596538,103.74675859387416,20.0,0,0.0,0.199,0.13,52,520.0485,0.07915732,0.07915732,20.0,0.00015269506794930523,0.00015269506794930523,52,2,0.0006285204825164148,2.4173864712169795e-05,-0.000604346617804245
WDSZ03,WOODLANDS EAST,WOODLANDS,1.4412498779937306,103.8019273073558,98980.0,0,0.7377045867852091,0.199,0.13,40,399.93793,0.060875,0.060875,98980.0,0.7556878912811116,0.7556878912811116,40,400,1.8401000152695068,18.401000152695065,16.56090013742556
SBSZ03,SEMBAWANG CENTRAL,SEMBAWANG,1.4463728057600895,103.81776763949766,34800.0,0,0.0,0.199,0.13,4,39.993477,0.006086982,0.006086982,34800.0,0.2656894182317911,0.2656894182317911,4,15,0.006468986825469538,0.024258700595510763,0.017789713770041224
WDSZ07,GREENWOOD PARK,WOODLANDS,1.4472946499878292,103.78486957071792,40.0,0,1.0,0.199,0.13,8,80.002914,0.012176915,0.012176915,40.0,0.00030539013589861045,0.00030539013589861045,8,2,2.9749677813406625e-05,7.437419453351656e-06,-2.2312258360054968e-05
SBSZ01,SEMBAWANG EAST,SEMBAWANG,1.4475010728064204,103.83142199489508,17340.0,0,0.0,0.199,0.13,11,109.99835,0.016742593,0.016742593,17340.0,0.13238662391204764,0.13238662391204764,11,20,0.024381448990838297,0.04432990725606963,0.019948458265231336
WDSZ08,SENOKO WEST,WOODLANDS,1.4511716671875827,103.79666957884191,20.0,0,1.0,0.199,0.13,6,60.004208,0.009132864,0.009132864,20.0,0.00015269506794930523,0.00015269506794930523,6,2,8.367259734310582e-06,2.789086578103527e-06,-5.5781731562070545e-06
PGSZ03,MATILDA,PUNGGOL,1.4027066094408274,103.89702089241332,52200.0,0,1.0,0.199,0.13,7,70.01139,0.01065608,0.01065608,52200.0,0.3985341273476867,0.3985341273476867,7,37,0.02972768080622996,0.15713202711864407,0.12740434631241412
PGSZ05,WATERWAY EAST,PUNGGOL,1.4012449813374233,103.9147590578205,50580.0,0,1.0,0.199,0.13,10,100.01143,0.015222459,0.015222459,50580.0,0.38616582684379297,0.38616582684379297,10,51,0.05878393466330738,0.29979806678286763,0.24101413211956024
SKSZ03,GALI BATU,SUNGEI KADUT,1.3999884347462062,103.76291533825156,30.0,0,0.0,0.199,0.13,69,690.006,0.10502696,0.10502696,30.0,0.00022904260192395785,0.00022904260192395785,69,1,0.0016598397251488778,2.4055648190563445e-05,-0.0016357840769583142
KLSZ09,CRAWFORD,KALLANG,1.304519631753244,103.86293992118114,8380.0,0,1.0,0.199,0.13,1,10.008786,0.0015229393,0.0015229393,8380.0,0.0639792334707589,0.0639792334707589,1,1,9.743648903649413e-05,9.743648903649413e-05,0.0
TSSZ04,TUAS BAY,TUAS,1.3123195359407314,103.64319961828448,10.0,0,0.0,0.199,0.13,52,519.96985,0.07914535,0.07914535,10.0,7.634753397465261e-05,7.634753397465261e-05,52,2,0.0003142127194991602,1.2085104596121546e-05,-0.00030212761490303866
TSSZ05,TUAS VIEW,TUAS,1.3016210357844185,103.63138178903893,10.0,0,0.0,0.199,0.13,32,320.05902,0.048716437,0.048716437,10.0,7.634753397465261e-05,7.634753397465261e-05,32,2,0.00011902015452740875,7.438759657963047e-06,-0.00011158139486944571
WCSZ03,BAHAR,WESTERN WATER CATCHMENT,1.3598480998694655,103.69925625645864,0.0,0,0.8,0.199,0.13,3,30.002808,0.004566278,0.004566278,0.0,0.0,0.0,3,2,0.0,0.0,0.0
WCSZ02,CLEANTECH,WESTERN WATER CATCHMENT,1.3531004130797304,103.69283970533012,0.0,0,0.8,0.199,0.13,3,30.002808,0.004566278,0.004566278,0.0,0.0,0.0,3,2,0.0,0.0,0.0
JESZ05,LAKESIDE (BUSINESS),JURONG EAST,1.329630008768179,103.7374818544886,0.0,0,0.8,0.199,0.13,9,90.00108,0.01369876,0.01369876,0.0,0.0,0.0,9,2,0.0,0.0,0.0
THSZ03,PARK,TENGAH,1.3649204759552889,103.73382956533972,0.0,0,0.8,0.199,0.13,7,70.00027,0.010654387,0.010654387,0.0,0.0,0.0,7,2,0.0,0.0,0.0
THSZ04,BRICKLAND,TENGAH,1.3687061270166407,103.74241249740828,0.0,0,0.8,0.199,0.13,4,40.001606,0.006088219,0.006088219,0.0,0.0,0.0,4,2,0.0,0.0,0.0
THSZ01,FOREST HILL,TENGAH,1.3726243079438751,103.73166559924462,10.0,0,0.0,0.199,0.13,6,59.989464,0.0091306195,0.0091306195,10.0,7.634753397465261e-05,7.634753397465261e-05,6,2,4.182601694915254e-06,1.3942005649717512e-06,-2.788401129943503e-06
THSZ06,PLANTATION,TENGAH,1.3537107649139792,103.73423607407436,0.0,0,0.8,0.199,0.13,8,79.9986,0.012176258,0.012176258,0.0,0.0,0.0,8,2,0.0,0.0,0.0
THSZ05,GARDEN,TENGAH,1.3587169621853403,103.72842161505471,0.0,0,0.8,0.199,0.13,7,70.00027,0.010654387,0.010654387,0.0,0.0,0.0,7,2,0.0,0.0,0.0
PLSZ04,AIRPORT ROAD,PAYA LEBAR,1.3514711826402668,103.89732639680658,0.0,0,0.8,0.199,0.13,7,70.00027,0.010654387,0.010654387,0.0,0.0,0.0,7,2,0.0,0.0,0.0
WDSZ09,NORTH COAST,WOODLANDS,1.45065482376202,103.7807246067226,12100.0,0,1.0,0.199,0.13,18,179.98416,0.027395302,0.027395302,12100.0,0.09238051610932967,0.09238051610932967,18,22,0.045554258479157124,0.055677427030080925,0.010123168550923801
YSSZ06,SPRINGLEAF,YISHUN,1.4014091097478547,103.82406069330108,4370.0,0,0.0,0.199,0.13,13,130.00003,0.019787097,0.019787097,4370.0,0.033363872346923194,0.033363872346923194,13,6,0.00858226431951443,0.003961045070545121,-0.004621219248969309
PGSZ02,PUNGGOL TOWN CENTRE,PUNGGOL,1.4090193911578357,103.90164783514574,22260.0,0,1.0,0.199,0.13,10,100.000496,0.015220795,0.015220795,22260.0,0.16994961062757674,0.16994961062757674,10,23,0.02586768183692167,0.059495668224919834,0.03362798638799816
PGSZ06,PUNGGOL CANAL,PUNGGOL,1.406590207967502,103.9179359529217,0.0,0,1.0,0.199,0.13,8,79.99965,0.012176418,0.012176418,0.0,0.0,0.0,8,2,0.0,0.0,0.0
CCSZ01,CENTRAL WATER CATCHMENT,CENTRAL WATER CATCHMENT,1.37665108437462,103.80119639919684,0.0,0,0.8,0.199,0.13,326,3259.9585,0.49620566,0.49620566,0.0,0.0,0.0,326,2,0.0,0.0,0.0
SBSZ06,SEMBAWANG STRAITS,SEMBAWANG,1.458673964566777,103.83648595989108,1910.0,0,0.0,0.199,0.13,8,79.989845,0.012174926,0.012174926,1910.0,0.01458237898915865,0.01458237898915865,8,2,0.0014203150807756912,0.0003550787701939228,-0.0010652363105817684
SBSZ07,THE WHARVES,SEMBAWANG,1.4644122700831288,103.8238388813832,0.0,0,0.8,0.199,0.13,10,99.99372,0.015219764,0.015219764,0.0,0.0,0.0,10,2,0.0,0.0,0.0
SBSZ08,SENOKO NORTH,SEMBAWANG,1.4637774915966903,103.80335790902878,10.0,0,0.0,0.199,0.13,14,139.9875,0.021307314,0.021307314,10.0,7.634753397465261e-05,7.634753397465261e-05,14,2,2.277465231333028e-05,3.253521759047183e-06,-1.9521130554283098e-05
CHSZ03,CHANGI AIRPORT,CHANGI,1.3467777731813526,104.00093976173667,10.0,0,0.0,0.199,0.13,166,1659.9916,0.25267082,0.25267082,10.0,7.634753397465261e-05,7.634753397465261e-05,166,1,0.003202271806382654,1.9290794014353338e-05,-0.0031829810123683005
OTSZ02,PEOPLE'S PARK,OUTRAM,1.282339454877469,103.84080505423324,290.0,0,0.0,0.199,0.13,1,10.002281,0.0015219492,0.0015219492,290.0,0.002214078485264926,0.002214078485264926,1,2,3.3697149793861656e-06,6.739429958772331e-06,3.3697149793861656e-06
MPSZ01,MOUNTBATTEN,MARINE PARADE,1.3016671007000031,103.89127766789208,9980.0,0,0.7870741482965932,0.199,0.13,10,99.99685,0.01522024,0.01522024,9980.0,0.07619483890670331,0.07619483890670331,10,11,0.011597037349213619,0.01275674108413498,0.0011597037349213614
GLSZ04,ALJUNIED,GEYLANG,1.3144439615875263,103.8835734427831,39990.0,0,0.8578644661165291,0.199,0.13,33,319.97614,0.048703823,0.048703823,39990.0,0.3053137883646358,0.3053137883646358,33,129,0.4907083073630325,1.918223383328218,1.4275150759651856
SLSZ03,PULAU PUNGGOL TIMOR,SELETAR,1.4190406113618852,103.89108750030816,0.0,0,0.8,0.199,0.13,11,109.99245,0.016741695,0.016741695,0.0,0.0,0.0,11,2,0.0,0.0,0.0
SKSZ02,TURF CLUB,SUNGEI KADUT,1.4187806620711323,103.76353958144666,670.0,0,0.0,0.199,0.13,16,159.99242,0.02435231,0.02435231,670.0,0.0051152847763017255,0.0051152847763017255,16,2,0.0019931040097724844,0.00024913800122156054,-0.0017439660085509239
WDSZ04,WOODLANDS SOUTH,WOODLANDS,1.42950431374738,103.79386651012976,41000.0,0,1.0,0.199,0.13,14,139.98453,0.021306861,0.021306861,41000.0,0.31302488929607575,0.31302488929607575,14,58,0.09337408928080623,0.3868355127347687,0.2934614234539624
WDSZ05,WOODGROVE,WOODLANDS,1.4292815677583888,103.7785498460008,33790.0,0,1.0,0.199,0.13,10,99.99685,0.01522024,0.01522024,33790.0,0.2579783173003512,0.2579783173003512,10,35,0.03926491904107497,0.1374272166437624,0.09816229760268742
YSSZ03,YISHUN EAST,YISHUN,1.427892022103711,103.8465855719554,60670.0,0,0.0,0.199,0.13,27,270.00537,0.041097652,0.041097652,60670.0,0.4632004886242174,0.4632004886242174,27,166,0.5139842171681172,3.1600511129595357,2.6460668957914186
WCSZ01,MURAI,WESTERN WATER CATCHMENT,1.3825878904122673,103.6896286985971,640.0,0,0.0,0.199,0.13,657,6569.7695,1.0,1.0,640.0,0.004886242174377767,0.004886242174377767,657,43,3.210261108566193,0.210108413498244,-3.000152695067949
SLSZ02,PULAU PUNGGOL BARAT,SELETAR,1.4251691934628905,103.87869831177218,0.0,0,0.8,0.199,0.13,17,170.0181,0.025878344,0.025878344,0.0,0.0,0.0,17,2,0.0,0.0,0.0
SMSZ04,PULAU SELETAR,SIMPANG,1.443544275505754,103.86486848827307,0.0,0,0.8,0.199,0.13,10,99.995995,0.015220109,0.015220109,0.0,0.0,0.0,10,2,0.0,0.0,0.0
SBSZ05,ADMIRALTY,SEMBAWANG,1.4533881833946642,103.82515275933612,13920.0,0,0.0,0.199,0.13,15,150.01222,0.0228332,0.0228332,13920.0,0.10627576729271644,0.10627576729271644,15,22,0.0363992377462208,0.05338554869445718,0.016986310948236376
LKSZ01,LIM CHU KANG,LIM CHU KANG,1.4306433390119435,103.7192852380507,110.0,0,0.0,0.199,0.13,192,1919.9893,0.2922457,0.2922457,110.0,0.0008398228737211788,0.0008398228737211788,192,3,0.04712344773247824,0.0007363038708199724,-0.046387143861658264
SMSZ01,SIMPANG NORTH,SIMPANG,1.447161405151341,103.84579755255665,0.0,0,0.8,0.199,0.13,17,170.0181,0.025878344,0.025878344,0.0,0.0,0.0,17,2,0.0,0.0,0.0
SBSZ09,SENOKO SOUTH,SEMBAWANG,1.4534932721233689,103.80753813535276,30.0,0,0.0,0.199,0.13,13,129.99985,0.01978707,0.01978707,30.0,0.00022904260192395785,0.00022904260192395785,13,2,5.891706596426936e-05,9.064163994502978e-06,-4.985290196976638e-05
SBSZ04,SEMBAWANG NORTH,SEMBAWANG,1.4570000322483612,103.81569620405992,25540.0,0,0.0,0.199,0.13,12,119.99892,0.018264802,0.018264802,25540.0,0.1949916017712628,0.1949916017712628,12,31,0.04273779597617957,0.11040597293846388,0.0676681769622843
SMSZ02,TANJONG IRAU,SIMPANG,1.454241601861276,103.85092787899475,0.0,0,0.8,0.199,0.13,7,70.00027,0.010654387,0.010654387,0.0,0.0,0.0,7,2,0.0,0.0,0.0
YSSZ09,YISHUN WEST,YISHUN,1.4311390462017437,103.83101158891166,53910.0,0,0.0,0.199,0.13,6,60.01074,0.009133858,0.009133858,53910.0,0.4115895556573523,0.4115895556573523,6,33,0.02255640333394411,0.12406021833669263,0.10150381500274852
WDSZ01,WOODLANDS REGIONAL CENTRE,WOODLANDS,1.4386019845905504,103.78453565333486,10.0,0,1.0,0.199,0.13,6,60.004208,0.009132864,0.009132864,10.0,7.634753397465261e-05,7.634753397465261e-05,6,2,4.183629867155291e-06,1.3945432890517634e-06,-2.7890865781035272e-06
NESZ01,NORTH-EASTERN ISLANDS,NORTH-EASTERN ISLANDS,1.4016414063852154,104.03482291117656,50.0,0,0.0,0.199,0.13,121,699.8303,0.106522344,0.106522344,50.0,0.0003817376698732631,0.0003817376698732631,121,1,0.004920294557947779,4.066359138799817e-05,-0.00487963096655978
SMSZ03,SIMPANG SOUTH,SIMPANG,1.4344660460980738,103.85639359630376,0.0,0,0.8,0.199,0.13,13,129.98436,0.019784711,0.019784711,0.0,0.0,0.0,13,2,0.0,0.0,0.0
YSSZ02,NORTHLAND,YISHUN,1.4380947136210638,103.83799650329428,28000.0,0,0.0,0.199,0.13,15,150.01755,0.022834012,0.022834012,28000.0,0.21377309512902734,0.21377309512902734,15,43,0.07321946129180028,0.20989578903649414,0.13667632774469385
WDSZ02,MIDVIEW,WOODLANDS,1.4398884999003645,103.79153165821884,35270.0,0,1.0,0.199,0.13,4,39.993797,0.0060870307,0.0060870307,35270.0,0.2692777523285998,0.2692777523285998,4,15,0.006556407781004734,0.024586529178767753,0.01803012139776302
WDSZ06,WOODLANDS WEST,WOODLANDS,1.4374636490043402,103.77565199317502,33910.0,0,1.0,0.199,0.13,14,139.96028,0.021303171,0.021303171,33910.0,0.258894487708047,0.258894487708047,14,48,0.07721382959642692,0.26473313004489235,0.18751930044846543
SBSZ02,SEMBAWANG SPRINGS,SEMBAWANG,1.4409557864528628,103.8250228336302,9090.0,0,0.0,0.199,0.13,15,150.01755,0.022834012,0.022834012,9090.0,0.06939990838295923,0.06939990838295923,15,14,0.023770175112230875,0.022185496771415483,-0.0015846783408153924
SKSZ01,KRANJI,SUNGEI KADUT,1.4343280230810591,103.75933587077202,10.0,0,0.0,0.199,0.13,35,350.00696,0.053274885,0.053274885,10.0,7.634753397465261e-05,7.634753397465261e-05,35,2,0.00014235921323866237,8.134812185066423e-06,-0.00013422440105359594
PLSZ05,PLAB,PAYA LEBAR,1.3575213138424054,103.91141206549396,0.0,0,0.8,0.199,0.13,60,600.10394,0.091342755,0.091342755,0.0,0.0,0.0,60,2,0.0,0.0,0.0
MDSZ02,MANDAI EAST,MANDAI,1.4267814977221402,103.8130039080276,0.0,0,0.8,0.199,0.13,68,679.9948,0.10350314,0.10350314,0.0,0.0,0.0,68,2,0.0,0.0,0.0
YSSZ07,NEE SOON,YISHUN,1.4075164723581255,103.81464337419798,890.0,0,0.0,0.199,0.13,47,469.7816,0.071506076,0.071506076,890.0,0.006794930523744083,0.006794930523744083,47,5,0.02283630446694152,0.0024293940922278214,-0.020406910374713698
BSSZ01,UPPER THOMSON,BISHAN,1.3576512921889832,103.832301064889,29390.0,0,0.0,0.199,0.13,28,279.99194,0.04261773,0.04261773,29390.0,0.22438540235150406,0.22438540235150406,28,83,0.2677583018140174,0.7937121089486945,0.5259538071346771
AMSZ05,SHANGRI-LA,ANG MO KIO,1.3679721768285331,103.83839287906925,15960.0,0,1.0,0.199,0.13,4,40.00608,0.0060889004,0.0060889004,15960.0,0.12185066422354558,0.12185066422354558,4,7,0.0029677462325240493,0.0051935559069170864,0.002225809674393037
AMSZ04,TOWNSVILLE,ANG MO KIO,1.3653546962396943,103.84847255683056,21140.0,0,1.0,0.199,0.13,10,100.000496,0.015220795,0.015220795,21140.0,0.16139868682241565,0.16139868682241565,10,22,0.024566163253931902,0.05404555915865018,0.02947939590471828
BSSZ02,MARYMOUNT,BISHAN,1.35436002668161,103.844888415435,29620.0,0,0.0,0.199,0.13,10,100.00645,0.015221701,0.015221701,29620.0,0.22614139563292104,0.22614139563292104,10,30,0.034422567080470305,0.1032677012414109,0.0688451341609406
TSSZ06,TUAS VIEW EXTENSION,TUAS,1.2523841787299017,103.62760625869268,10.0,0,0.0,0.199,0.13,179,1789.9954,0.272459,0.272459,10.0,7.634753397465261e-05,7.634753397465261e-05,179,1,0.0037234815238967782,2.0801572759199877e-05,-0.0037026799511375784
